<?xml version="1.0" encoding="utf-8" ?>
<!--
-
- phpMyAdmin XML Dump
- version 3.1.1
- http://www.phpmyadmin.net
-
- Host: localhost
- Erstellungszeit: 01. Juni 2009 um 18:15
- Server Version: 5.1.30
- PHP-Version: 5.2.8
-->

<!--
- Datenbank: 'wandern'
-->
<wandern>
  <!-- Tabelle walks -->
    <walks>
        <Tag>MLUW2_33</Tag>
        <Name>Über den Heroldstein zu den Tummlern im Leinleitertal</Name>
        <Laenge>12.0</Laenge>
        <Dauer>3.5</Dauer>
        <Charakter>hügeliges Gelände</Charakter>
        <Lon>11.154664</Lon>
        <Lat>49.869610</Lat>
        <Datum>2008-10-19</Datum>
        <Streckenwanderung>0</Streckenwanderung>
    </walks>
    <walks>
        <Tag>MLUW2_34</Tag>
        <Name>Über den Seigelstein, durchs Eppental und ins Leinleiter-Quellgebiet</Name>
        <Laenge>19.0</Laenge>
        <Dauer>5.0</Dauer>
        <Charakter>hügeliges Gelände</Charakter>
        <Lon>11.128163</Lon>
        <Lat>49.883892</Lat>
        <Datum>0000-00-00</Datum>
        <Streckenwanderung>0</Streckenwanderung>
    </walks>
    <walks>
        <Tag>MLUW1_01</Tag>
        <Name>Geruhsame Waldwanderung durch die romantische Bitterbachschlucht</Name>
        <Laenge>11.0</Laenge>
        <Dauer>3.5</Dauer>
        <Charakter>leichtes Gelände</Charakter>
        <Lon>11.264956</Lon>
        <Lat>49.509521</Lat>
        <Datum>2006-09-25</Datum>
        <Streckenwanderung>0</Streckenwanderung>
    </walks>
    <walks>
        <Tag>MLUW1_02</Tag>
        <Name>Zum Aussichts- und Kletterfelsen Glatzenstein</Name>
        <Laenge>12.0</Laenge>
        <Dauer>3.5</Dauer>
        <Charakter>überwiegend leichtes Gelände, Anstieg zum Glatzenstein</Charakter>
        <Lon>11.378746</Lon>
        <Lat>49.530472</Lat>
        <Datum>0000-00-00</Datum>
        <Streckenwanderung>0</Streckenwanderung>
    </walks>
    <walks>
        <Tag>MLUW1_03</Tag>
        <Name>Abwechslungsreicher Weg von Hersbruck nach Eschenbach</Name>
        <Laenge>11.5</Laenge>
        <Dauer>4.0</Dauer>
        <Charakter>hügeliges Gelände</Charakter>
        <Lon>11.432036</Lon>
        <Lat>49.515312</Lat>
        <Datum>0000-00-00</Datum>
        <Streckenwanderung>0</Streckenwanderung>
    </walks>
    <walks>
        <Tag>MLUW1_04</Tag>
        <Name>Von Kleedorf über die Felsnadel Langenstein und das altfränkische Pfarrdorf Vorra</Name>
        <Laenge>14.0</Laenge>
        <Dauer>5.0</Dauer>
        <Charakter>leichtes bis mittelschweres Gelände</Charakter>
        <Lon>11.444610</Lon>
        <Lat>49.536396</Lat>
        <Datum>2006-09-12</Datum>
        <Streckenwanderung>0</Streckenwanderung>
    </walks>
    <walks>
        <Tag>MLUW1_05</Tag>
        <Name>Zum Aussichtsberg Zankelstein und ins Aichatal</Name>
        <Laenge>12.0</Laenge>
        <Dauer>4.0</Dauer>
        <Charakter>leichtes, mitunter ansteigendes Gelände</Charakter>
        <Lon>11.513565</Lon>
        <Lat>49.505356</Lat>
        <Datum>2006-03-04</Datum>
        <Streckenwanderung>0</Streckenwanderung>
    </walks>
    <walks>
        <Tag>MLUW1_06</Tag>
        <Name>Von Hubmersberg zu den Aussichtspunkten Eschenbacher Geißkirche und Lochfels</Name>
        <Laenge>10.0</Laenge>
        <Dauer>3.5</Dauer>
        <Charakter>hügeliges, mitunter steiles Gelände</Charakter>
        <Lon>11.507084</Lon>
        <Lat>49.527103</Lat>
        <Datum>0000-00-00</Datum>
        <Streckenwanderung>0</Streckenwanderung>
    </walks>
    <walks>
        <Tag>MLUW1_07</Tag>
        <Name>Auf unbekannten Pfaden von Oed über die Noris-Schanze und den Knappenberg nach Neukirchen, Ermhof und Ernhüll</Name>
        <Laenge>13.0</Laenge>
        <Dauer>4.0</Dauer>
        <Charakter>hügeliges, teilweise anstrengendes Gelände</Charakter>
        <Lon>11.570063</Lon>
        <Lat>49.508018</Lat>
        <Datum>2007-06-10</Datum>
        <Streckenwanderung>0</Streckenwanderung>
    </walks>
    <walks>
        <Tag>MLUW1_08</Tag>
        <Name>Felsgestein um Etzelwand und Kirchenreinbach, &quot;Windloch&quot; von Buchhof und Schloss Neidstein</Name>
        <Laenge>12.0</Laenge>
        <Dauer>4.0</Dauer>
        <Charakter>hügeliges Gelände</Charakter>
        <Lon>11.584477</Lon>
        <Lat>49.526363</Lat>
        <Datum>2006-10-29</Datum>
        <Streckenwanderung>0</Streckenwanderung>
    </walks>
    <walks>
        <Tag>MLUW1_09</Tag>
        <Name>Höhlenweg ab Neutras</Name>
        <Laenge>20.0</Laenge>
        <Dauer>5.5</Dauer>
        <Charakter>hügeliges, zwischendurch anstrengendes Gelände</Charakter>
        <Lon>11.545258</Lon>
        <Lat>49.533676</Lat>
        <Datum>0000-00-00</Datum>
        <Streckenwanderung>0</Streckenwanderung>
    </walks>
    <walks>
        <Tag>MLUW1_10</Tag>
        <Name>Von Hirschbach aus ins Klettergebiet &quot;Höhenglücksteig&quot;</Name>
        <Laenge>9.0</Laenge>
        <Dauer>3.0</Dauer>
        <Charakter>hügeliges Gelände mit einem steilen Anstieg</Charakter>
        <Lon>11.540816</Lon>
        <Lat>49.556343</Lat>
        <Datum>0000-00-00</Datum>
        <Streckenwanderung>0</Streckenwanderung>
    </walks>
    <walks>
        <Tag>MLUW1_11</Tag>
        <Name>Zur Petershöhle zwischen Hartenstein und Velden</Name>
        <Laenge>14.0</Laenge>
        <Dauer>4.5</Dauer>
        <Charakter>hügeliges Gelände</Charakter>
        <Lon>11.480863</Lon>
        <Lat>49.597881</Lat>
        <Datum>2008-02-17</Datum>
        <Streckenwanderung>0</Streckenwanderung>
    </walks>
    <walks>
        <Tag>MLUW1_12</Tag>
        <Name>Zum höchsten Punkt der Frankenalb, der Burgruine Hohenstein</Name>
        <Laenge>14.5</Laenge>
        <Dauer>4.5</Dauer>
        <Charakter>überwiegend leichtes, zwischendurch anstrengendes Gelände</Charakter>
        <Lon>11.480863</Lon>
        <Lat>49.597881</Lat>
        <Datum>2006-11-25</Datum>
        <Streckenwanderung>0</Streckenwanderung>
    </walks>
    <walks>
        <Tag>MLUW1_13</Tag>
        <Name>Höhen- und Tälerwanderung ab Velden</Name>
        <Laenge>14.5</Laenge>
        <Dauer>5.0</Dauer>
        <Charakter>welliges, zwischendurch anstrengendes Gelände</Charakter>
        <Lon>11.508608</Lon>
        <Lat>49.611668</Lat>
        <Datum>2009-03-14</Datum>
        <Streckenwanderung>0</Streckenwanderung>
    </walks>
    <walks>
        <Tag>MLUW1_14</Tag>
        <Name>Exkursion durch die geheimnisvolle Welt der Grotten</Name>
        <Laenge>11.5</Laenge>
        <Dauer>3.5</Dauer>
        <Charakter>hügeliges Gelände mit zwei steileren Anstiegen</Charakter>
        <Lon>11.589332</Lon>
        <Lat>49.629463</Lat>
        <Datum>2007-06-03</Datum>
        <Streckenwanderung>0</Streckenwanderung>
    </walks>
    <walks>
        <Tag>MLUW1_15</Tag>
        <Name>Bizarre Felsformationen nördlich der Maximiliansgrotte</Name>
        <Laenge>16.0</Laenge>
        <Dauer>4.5</Dauer>
        <Charakter>hügeliges, mitunter steiles Gelände</Charakter>
        <Lon>11.589332</Lon>
        <Lat>49.629463</Lat>
        <Datum>0000-00-00</Datum>
        <Streckenwanderung>0</Streckenwanderung>
    </walks>
    <walks>
        <Tag>MLUW1_16</Tag>
        <Name>Wanderung von Königstein im Oberpfälzer Jura zu den Kapellen in Breitenstein</Name>
        <Laenge>13.0</Laenge>
        <Dauer>4.5</Dauer>
        <Charakter>hügeliges, mitunter steiles Gelände</Charakter>
        <Lon>11.634007</Lon>
        <Lat>49.604507</Lat>
        <Datum>0000-00-00</Datum>
        <Streckenwanderung>0</Streckenwanderung>
    </walks>
    <walks>
        <Tag>MLUW1_17</Tag>
        <Name>Von Weidensees durch das romantische Klumpertal nach Bronn</Name>
        <Laenge>13.5</Laenge>
        <Dauer>4.0</Dauer>
        <Charakter>leichtes Gelände</Charakter>
        <Lon>11.440566</Lon>
        <Lat>49.710426</Lat>
        <Datum>2009-05-01</Datum>
        <Streckenwanderung>0</Streckenwanderung>
    </walks>
    <walks>
        <Tag>MLUW1_18</Tag>
        <Name>Durchs Püttlachtal zur Elbersberger Kapelle und zur Ruine Hollenberg</Name>
        <Laenge>12.0</Laenge>
        <Dauer>4.5</Dauer>
        <Charakter>hügeliges Gelände</Charakter>
        <Lon>11.498244</Lon>
        <Lat>49.774559</Lat>
        <Datum>0000-00-00</Datum>
        <Streckenwanderung>0</Streckenwanderung>
    </walks>
    <walks>
        <Tag>MLUW1_19</Tag>
        <Name>Auf stillen Pfaden zur Kirche von St. Helena</Name>
        <Laenge>9.0</Laenge>
        <Dauer>3.0</Dauer>
        <Charakter>überwiegend leichtes Gelände mit steileren An- und Abstiegen</Charakter>
        <Lon>11.379733</Lon>
        <Lat>49.631771</Lat>
        <Datum>2007-01-01</Datum>
        <Streckenwanderung>0</Streckenwanderung>
    </walks>
    <walks>
        <Tag>MLUW1_20</Tag>
        <Name>Zu den Burgruinen von Wildenfels und Stierberg</Name>
        <Laenge>16.0</Laenge>
        <Dauer>5.0</Dauer>
        <Charakter>überwiegend leichtes, zwischendurch anstrengendes Gelände</Charakter>
        <Lon>11.360893</Lon>
        <Lat>49.656239</Lat>
        <Datum>2007-04-01</Datum>
        <Streckenwanderung>0</Streckenwanderung>
    </walks>
    <walks>
        <Tag>MLUW1_21</Tag>
        <Name>Von Markt Igensdorf zum Kloster Weißenohe und zur Lillingquelle</Name>
        <Laenge>15.0</Laenge>
        <Dauer>4.5</Dauer>
        <Charakter>hügeliges Gelände mit einigen Anstiegen</Charakter>
        <Lon>11.232018</Lon>
        <Lat>49.627335</Lat>
        <Datum>2006-08-31</Datum>
        <Streckenwanderung>0</Streckenwanderung>
    </walks>
    <walks>
        <Tag>MLUW1_22</Tag>
        <Name>Durchs Felsengebiet &quot;Hohle Kirche&quot; ins Großenoher Tal</Name>
        <Laenge>10.0</Laenge>
        <Dauer>3.5</Dauer>
        <Charakter>leichtes Gelände mit einem Anstieg</Charakter>
        <Lon>11.283860</Lon>
        <Lat>49.654266</Lat>
        <Datum>2006-09-17</Datum>
        <Streckenwanderung>0</Streckenwanderung>
    </walks>
    <walks>
        <Tag>MLUW1_23</Tag>
        <Name>Von Hiltpoltstein in Trubachtal und zur Burgruine Leienfels</Name>
        <Laenge>19.0</Laenge>
        <Dauer>5.5</Dauer>
        <Charakter>hügeliges, mitunter steiles Gelände</Charakter>
        <Lon>11.321754</Lon>
        <Lat>49.660378</Lat>
        <Datum>2006-06-10</Datum>
        <Streckenwanderung>0</Streckenwanderung>
    </walks>
    <walks>
        <Tag>MLUW1_24</Tag>
        <Name>Zur Burgruine Bärnfels und ins Pitztal</Name>
        <Laenge>8.0</Laenge>
        <Dauer>3.0</Dauer>
        <Charakter>leichtes Gelände</Charakter>
        <Lon>11.338234</Lon>
        <Lat>49.715515</Lat>
        <Datum>2008-06-30</Datum>
        <Streckenwanderung>0</Streckenwanderung>
    </walks>
    <walks>
        <Tag>MLUW1_25</Tag>
        <Name>Von Regenthal über die Kreuzkapelle oberhalb Pottensteins in den Landschaftsgarten Klumpertal</Name>
        <Laenge>16.5</Laenge>
        <Dauer>4.5</Dauer>
        <Charakter>hügeliges, mitunter steiles Gelände</Charakter>
        <Lon>11.398787</Lon>
        <Lat>49.731277</Lat>
        <Datum>0000-00-00</Datum>
        <Streckenwanderung>0</Streckenwanderung>
    </walks>
    <walks>
        <Tag>MLUW1_26</Tag>
        <Name>Über Höhenwege ins Naturschutzgebiet Ehrenbürg</Name>
        <Laenge>12.0</Laenge>
        <Dauer>4.0</Dauer>
        <Charakter>hügeliges Gelände</Charakter>
        <Lon>11.146381</Lon>
        <Lat>49.730820</Lat>
        <Datum>0000-00-00</Datum>
        <Streckenwanderung>0</Streckenwanderung>
    </walks>
    <walks>
        <Tag>MLUW1_27</Tag>
        <Name>Auf den Spuren des Leutenbacher Heimatdichters und Pfarrers Dr. Georg Kanzler</Name>
        <Laenge>18.0</Laenge>
        <Dauer>5.5</Dauer>
        <Charakter>hügeliges, mitunter steiles Gelände</Charakter>
        <Lon>11.172645</Lon>
        <Lat>49.710358</Lat>
        <Datum>2007-06-07</Datum>
        <Streckenwanderung>0</Streckenwanderung>
    </walks>
    <walks>
        <Tag>MLUW1_28</Tag>
        <Name>Über die Höhenburg Dietrichstein ins Trubachtal</Name>
        <Laenge>19.0</Laenge>
        <Dauer>5.5</Dauer>
        <Charakter>hügeliges, mitunter anstrengendes Gelände</Charakter>
        <Lon>11.173782</Lon>
        <Lat>49.755096</Lat>
        <Datum>0000-00-00</Datum>
        <Streckenwanderung>0</Streckenwanderung>
    </walks>
    <walks>
        <Tag>MLUW1_29</Tag>
        <Name>Aussichtsfelsen um Egloffstein</Name>
        <Laenge>10.0</Laenge>
        <Dauer>3.0</Dauer>
        <Charakter>überwiegend leichtes, zwischendurch anstrengendes Gelände</Charakter>
        <Lon>11.259270</Lon>
        <Lat>49.703388</Lat>
        <Datum>2008-09-27</Datum>
        <Streckenwanderung>0</Streckenwanderung>
    </walks>
    <walks>
        <Tag>MLUW1_30</Tag>
        <Name>Von Morschreuth zum Rötelfels</Name>
        <Laenge>10.0</Laenge>
        <Dauer>3.5</Dauer>
        <Charakter>leichtes, mitunter steiles Gelände</Charakter>
        <Lon>11.263947</Lon>
        <Lat>49.754875</Lat>
        <Datum>2008-05-11</Datum>
        <Streckenwanderung>0</Streckenwanderung>
    </walks>
    <walks>
        <Tag>MLUW1_31</Tag>
        <Name>Geruhsame Waldwanderung ab Ebermannstadt mit schönen Aussichten</Name>
        <Laenge>12.0</Laenge>
        <Dauer>3.5</Dauer>
        <Charakter>überwiegend leichtes Gelände</Charakter>
        <Lon>11.182108</Lon>
        <Lat>49.786667</Lat>
        <Datum>0000-00-00</Datum>
        <Streckenwanderung>0</Streckenwanderung>
    </walks>
    <walks>
        <Tag>MLUW1_32</Tag>
        <Name>Burgruine Neideck und Traumaussicht vom Zuckerhut</Name>
        <Laenge>12.0</Laenge>
        <Dauer>3.5</Dauer>
        <Charakter>leichtes bis mittelschweres Gelände</Charakter>
        <Lon>11.221075</Lon>
        <Lat>49.806889</Lat>
        <Datum>0000-00-00</Datum>
        <Streckenwanderung>0</Streckenwanderung>
    </walks>
    <walks>
        <Tag>MLUW1_33</Tag>
        <Name>Durchs Werntal zum sagenumwobenen Totenstein</Name>
        <Laenge>13.0</Laenge>
        <Dauer>4.5</Dauer>
        <Charakter>hügeliges, mitunter anstrengendes Gelände</Charakter>
        <Lon>11.197815</Lon>
        <Lat>49.840973</Lat>
        <Datum>2006-07-29</Datum>
        <Streckenwanderung>0</Streckenwanderung>
    </walks>
    <walks>
        <Tag>MLUW1_34</Tag>
        <Name>Von Kalteneggolsfeld über den Altenberg nach Burggrub</Name>
        <Laenge>11.5</Laenge>
        <Dauer>3.5</Dauer>
        <Charakter>hügeliges Gelände</Charakter>
        <Lon>11.119108</Lon>
        <Lat>49.846329</Lat>
        <Datum>0000-00-00</Datum>
        <Streckenwanderung>0</Streckenwanderung>
    </walks>
    <walks>
        <Tag>MLUW1_35</Tag>
        <Name>Von Burggrub zur Leinleiter-Quelle und dem größten Mühlrad der Fränkischen Schweiz</Name>
        <Laenge>11.0</Laenge>
        <Dauer>3.5</Dauer>
        <Charakter>leichtes Gelände mit zwei Anstiegen</Charakter>
        <Lon>11.137133</Lon>
        <Lat>49.875595</Lat>
        <Datum>0000-00-00</Datum>
        <Streckenwanderung>0</Streckenwanderung>
    </walks>
    <walks>
        <Tag>MLUW1_36</Tag>
        <Name>Aussichtsreiche Höhen über dem Wiesenttal, die Oswaldhöhle und Blick vom Hohen Kreuz</Name>
        <Laenge>14.0</Laenge>
        <Dauer>4.0</Dauer>
        <Charakter>hügeliges, mitunter anstrengendes Gelände</Charakter>
        <Lon>11.217427</Lon>
        <Lat>49.808315</Lat>
        <Datum>2007-07-08</Datum>
        <Streckenwanderung>0</Streckenwanderung>
    </walks>
    <walks>
        <Tag>MLUW1_37</Tag>
        <Name>Über den Rücken des Hummerbergs und zur Ruine Streitburg</Name>
        <Laenge>10.0</Laenge>
        <Dauer>3.5</Dauer>
        <Charakter>überwiegend leichtes Gelände, am Anfang Anstieg</Charakter>
        <Lon>11.217427</Lon>
        <Lat>49.808315</Lat>
        <Datum>2007-10-14</Datum>
        <Streckenwanderung>0</Streckenwanderung>
    </walks>
    <walks>
        <Tag>MLUW1_38</Tag>
        <Name>Von Muggendorf zum Naturdenkmal Druidenhain bei Wohlmannsgesees</Name>
        <Laenge>11.0</Laenge>
        <Dauer>4.0</Dauer>
        <Charakter>hügeliges, mitunter ansteigendes Gelände</Charakter>
        <Lon>11.261523</Lon>
        <Lat>49.802929</Lat>
        <Datum>0000-00-00</Datum>
        <Streckenwanderung>0</Streckenwanderung>
    </walks>
    <walks>
        <Tag>MLUW1_39</Tag>
        <Name>Durchs Aufseßtal über Muggendorf zum geheimnisvollen Labyrinth der Riesenburg</Name>
        <Laenge>13.5</Laenge>
        <Dauer>4.0</Dauer>
        <Charakter>hügeliges Gelände mit steilen An- und Abstiegen</Charakter>
        <Lon>11.296241</Lon>
        <Lat>49.811584</Lat>
        <Datum>2006-10-22</Datum>
        <Streckenwanderung>0</Streckenwanderung>
    </walks>
    <walks>
        <Tag>MLUW1_40</Tag>
        <Name>Zu den Burgen Rabeneck und Rabenstein</Name>
        <Laenge>15.0</Laenge>
        <Dauer>4.5</Dauer>
        <Charakter>hügeliges, mitunter anstrengendes Gelände</Charakter>
        <Lon>11.296241</Lon>
        <Lat>49.811584</Lat>
        <Datum>0000-00-00</Datum>
        <Streckenwanderung>0</Streckenwanderung>
    </walks>
    <walks>
        <Tag>MLUW1_41</Tag>
        <Name>Malerische Felsgebiete zwischen Oberailsfeld und Kirchahorn</Name>
        <Laenge>11.0</Laenge>
        <Dauer>3.5</Dauer>
        <Charakter>teils hügeliges, teils leichtes Gelände</Charakter>
        <Lon>11.353812</Lon>
        <Lat>49.812622</Lat>
        <Datum>0000-00-00</Datum>
        <Streckenwanderung>0</Streckenwanderung>
    </walks>
    <walks>
        <Tag>MLUW1_42</Tag>
        <Name>Von Waischenfeld zum Zusammenfluss von Wiesent und Truppach</Name>
        <Laenge>16.0</Laenge>
        <Dauer>4.5</Dauer>
        <Charakter>überwiegend leichtes Gelände</Charakter>
        <Lon>11.344950</Lon>
        <Lat>49.854446</Lat>
        <Datum>2006-01-01</Datum>
        <Streckenwanderung>0</Streckenwanderung>
    </walks>
    <walks>
        <Tag>MLUW1_43</Tag>
        <Name>Durchs Aufseßtal nach Siegritzberg</Name>
        <Laenge>12.0</Laenge>
        <Dauer>3.5</Dauer>
        <Charakter>überwiegend leichtes Gelände mit zwei steileren Anstiegen</Charakter>
        <Lon>11.251523</Lon>
        <Lat>49.851265</Lat>
        <Datum>0000-00-00</Datum>
        <Streckenwanderung>0</Streckenwanderung>
    </walks>
    <walks>
        <Tag>MLUW1_44</Tag>
        <Name>Auf stillen Wegen zum Naturdenkmal &quot;Russenlinde&quot; und ins Aufseßtal</Name>
        <Laenge>14.0</Laenge>
        <Dauer>4.5</Dauer>
        <Charakter>leichtes Gelände</Charakter>
        <Lon>11.238756</Lon>
        <Lat>49.870853</Lat>
        <Datum>2008-08-01</Datum>
        <Streckenwanderung>0</Streckenwanderung>
    </walks>
    <walks>
        <Tag>MLUW1_45</Tag>
        <Name>Von Plankenfels durchs Lochautal und über aussichtsreiche Höhen zurück</Name>
        <Laenge>18.0</Laenge>
        <Dauer>4.5</Dauer>
        <Charakter>hügeliges, überwiegend leichtes Gelände</Charakter>
        <Lon>11.334629</Lon>
        <Lat>49.883507</Lat>
        <Datum>2007-03-10</Datum>
        <Streckenwanderung>0</Streckenwanderung>
    </walks>
    <walks>
        <Tag>MLUW1_46</Tag>
        <Name>Ins Mühlenviertel der Fränkischen Schweiz</Name>
        <Laenge>11.0</Laenge>
        <Dauer>3.5</Dauer>
        <Charakter>hügeliges aber überwiegend leichtes Gelände</Charakter>
        <Lon>11.334329</Lon>
        <Lat>49.780128</Lat>
        <Datum>0000-00-00</Datum>
        <Streckenwanderung>0</Streckenwanderung>
    </walks>
    <walks>
        <Tag>MLUW1_47</Tag>
        <Name>Vom Wallfahrtsort Gößweinstein durchs Wiesenttal nach Burggaillenreuth</Name>
        <Laenge>12.5</Laenge>
        <Dauer>3.5</Dauer>
        <Charakter>überwiegend leichtes Gelände mit je einem steilen Ab- und Anstieg</Charakter>
        <Lon>11.340315</Lon>
        <Lat>49.767448</Lat>
        <Datum>0000-00-00</Datum>
        <Streckenwanderung>0</Streckenwanderung>
    </walks>
    <walks>
        <Tag>MLUW1_48</Tag>
        <Name>Durchs Püttlachtal und zur Elbersberg-Kapelle</Name>
        <Laenge>11.5</Laenge>
        <Dauer>3.5</Dauer>
        <Charakter>überwiegend leichtes Gelände mit einem steileren Anstieg</Charakter>
        <Lon>11.409152</Lon>
        <Lat>49.768333</Lat>
        <Datum>0000-00-00</Datum>
        <Streckenwanderung>0</Streckenwanderung>
    </walks>
    <walks>
        <Tag>MLUW1_49</Tag>
        <Name>Von Pottenstein ins Felsendorf Tüchersfeld und nach Gößweinstein</Name>
        <Laenge>14.0</Laenge>
        <Dauer>4.5</Dauer>
        <Charakter>hügeliges, mitunter anstrengendes Gelände</Charakter>
        <Lon>11.409152</Lon>
        <Lat>49.768333</Lat>
        <Datum>0000-00-00</Datum>
        <Streckenwanderung>0</Streckenwanderung>
    </walks>
    <walks>
        <Tag>MLUW1_50</Tag>
        <Name>Zum Aussichtsturm auf der Hohenmirsberger Platte</Name>
        <Laenge>15.5</Laenge>
        <Dauer>5.0</Dauer>
        <Charakter>hügeliges, mitunter anseigendes Gelände</Charakter>
        <Lon>11.409152</Lon>
        <Lat>49.768333</Lat>
        <Datum>0000-00-00</Datum>
        <Streckenwanderung>0</Streckenwanderung>
    </walks>
    <walks>
        <Tag>FUW3_57</Tag>
        <Name>Von Ursensollen zum Zanter Wallfahrtskirchlein</Name>
        <Laenge>17.0</Laenge>
        <Dauer>4.5</Dauer>
        <Charakter>leichtes Gelände</Charakter>
        <Lon>11.756483</Lon>
        <Lat>49.402493</Lat>
        <Datum>0000-00-00</Datum>
        <Streckenwanderung>0</Streckenwanderung>
    </walks>
    <walks>
        <Tag>FUW1_45</Tag>
        <Name>Rund um den &quot;Starenfels&quot;</Name>
        <Laenge>8.8</Laenge>
        <Dauer>2.0</Dauer>
        <Charakter></Charakter>
        <Lon>11.567903</Lon>
        <Lat>49.547256</Lat>
        <Datum>0000-00-00</Datum>
        <Streckenwanderung>0</Streckenwanderung>
    </walks>
    <walks>
        <Tag>FUW1_46</Tag>
        <Name>Durch die Hartensteiner Berge</Name>
        <Laenge>11.0</Laenge>
        <Dauer>2.5</Dauer>
        <Charakter></Charakter>
        <Lon>11.524428</Lon>
        <Lat>49.595165</Lat>
        <Datum>0000-00-00</Datum>
        <Streckenwanderung>0</Streckenwanderung>
    </walks>
    <walks>
        <Tag>FUW1_47</Tag>
        <Name>Zur &quot;Steinernen Stadt&quot; und zur &quot;Weisingkuppe&quot;</Name>
        <Laenge>11.0</Laenge>
        <Dauer>2.5</Dauer>
        <Charakter></Charakter>
        <Lon>11.588400</Lon>
        <Lat>49.628502</Lat>
        <Datum>0000-00-00</Datum>
        <Streckenwanderung>0</Streckenwanderung>
    </walks>
    <walks>
        <Tag>FUW1_48</Tag>
        <Name>Über Gnadenberg ins Traunfelder und Raschbacher Tal</Name>
        <Laenge>13.2</Laenge>
        <Dauer>3.0</Dauer>
        <Charakter></Charakter>
        <Lon>11.401914</Lon>
        <Lat>49.381538</Lat>
        <Datum>0000-00-00</Datum>
        <Streckenwanderung>0</Streckenwanderung>
    </walks>
    <walks>
        <Tag>FUW1_49</Tag>
        <Name>Rund um den Ernhofer Berg</Name>
        <Laenge>17.6</Laenge>
        <Dauer>4.0</Dauer>
        <Charakter></Charakter>
        <Lon>11.353903</Lon>
        <Lat>49.388546</Lat>
        <Datum>0000-00-00</Datum>
        <Streckenwanderung>0</Streckenwanderung>
    </walks>
    <walks>
        <Tag>FUW1_50</Tag>
        <Name>Auf die Sattelhöhen zwischen Nonnenberg, Buchenberg und Ernhofer Berg</Name>
        <Laenge>8.8</Laenge>
        <Dauer>2.0</Dauer>
        <Charakter></Charakter>
        <Lon>11.364592</Lon>
        <Lat>49.451115</Lat>
        <Datum>0000-00-00</Datum>
        <Streckenwanderung>0</Streckenwanderung>
    </walks>
    <walks>
        <Tag>FUW1_51</Tag>
        <Name>Zum &quot;Hohlen Felsen&quot; auf der Houbirg</Name>
        <Laenge>8.8</Laenge>
        <Dauer>2.0</Dauer>
        <Charakter></Charakter>
        <Lon>11.471103</Lon>
        <Lat>49.493195</Lat>
        <Datum>0000-00-00</Datum>
        <Streckenwanderung>0</Streckenwanderung>
    </walks>
    <walks>
        <Tag>FUW1_52</Tag>
        <Name>Rund um das &quot;Düsselwöhr&quot; bei Förrenbach</Name>
        <Laenge>6.6</Laenge>
        <Dauer>1.5</Dauer>
        <Charakter></Charakter>
        <Lon>11.502753</Lon>
        <Lat>49.475853</Lat>
        <Datum>0000-00-00</Datum>
        <Streckenwanderung>0</Streckenwanderung>
    </walks>
    <walks>
        <Tag>FUW1_53</Tag>
        <Name>Zum stillen Molsberger Tal durch den Fichtengraben</Name>
        <Laenge>8.8</Laenge>
        <Dauer>2.0</Dauer>
        <Charakter></Charakter>
        <Lon>11.502753</Lon>
        <Lat>49.475853</Lat>
        <Datum>0000-00-00</Datum>
        <Streckenwanderung>0</Streckenwanderung>
    </walks>
    <walks>
        <Tag>FUW1_54</Tag>
        <Name>Durchs Molsberger Tal zur Ruine Reicheneck</Name>
        <Laenge>11.0</Laenge>
        <Dauer>2.5</Dauer>
        <Charakter></Charakter>
        <Lon>11.502753</Lon>
        <Lat>49.475853</Lat>
        <Datum>0000-00-00</Datum>
        <Streckenwanderung>0</Streckenwanderung>
    </walks>
    <walks>
        <Tag>FUW1_55</Tag>
        <Name>Rund um die &quot;Wacht&quot; bei Thalheim</Name>
        <Laenge>6.6</Laenge>
        <Dauer>1.5</Dauer>
        <Charakter></Charakter>
        <Lon>11.542064</Lon>
        <Lat>49.459019</Lat>
        <Datum>0000-00-00</Datum>
        <Streckenwanderung>0</Streckenwanderung>
    </walks>
    <walks>
        <Tag>FUW1_56</Tag>
        <Name>Links und rechts des Förrenbachtals</Name>
        <Laenge>13.2</Laenge>
        <Dauer>3.0</Dauer>
        <Charakter></Charakter>
        <Lon>11.542064</Lon>
        <Lat>49.459019</Lat>
        <Datum>0000-00-00</Datum>
        <Streckenwanderung>0</Streckenwanderung>
    </walks>
    <walks>
        <Tag>FUW1_57</Tag>
        <Name>Durchs Kirchtal zur Einöde Othenberg und zur Regelsmühle</Name>
        <Laenge>11.0</Laenge>
        <Dauer>2.5</Dauer>
        <Charakter></Charakter>
        <Lon>11.564108</Lon>
        <Lat>49.454285</Lat>
        <Datum>0000-00-00</Datum>
        <Streckenwanderung>0</Streckenwanderung>
    </walks>
    <walks>
        <Tag>FUW1_58</Tag>
        <Name>Zum hochliegenden Trossalter</Name>
        <Laenge>11.0</Laenge>
        <Dauer>2.5</Dauer>
        <Charakter></Charakter>
        <Lon>11.564108</Lon>
        <Lat>49.454285</Lat>
        <Datum>0000-00-00</Datum>
        <Streckenwanderung>0</Streckenwanderung>
    </walks>
    <walks>
        <Tag>FUW1_59</Tag>
        <Name>Durchs einsame Schottental</Name>
        <Laenge>8.8</Laenge>
        <Dauer>2.0</Dauer>
        <Charakter></Charakter>
        <Lon>11.561839</Lon>
        <Lat>49.453522</Lat>
        <Datum>0000-00-00</Datum>
        <Streckenwanderung>0</Streckenwanderung>
    </walks>
    <walks>
        <Tag>FUW1_60</Tag>
        <Name>Über Wurmrausch zur Ruine Lichtenegg</Name>
        <Laenge>11.0</Laenge>
        <Dauer>2.5</Dauer>
        <Charakter></Charakter>
        <Lon>11.597597</Lon>
        <Lat>49.456909</Lat>
        <Datum>0000-00-00</Datum>
        <Streckenwanderung>0</Streckenwanderung>
    </walks>
    <walks>
        <Tag>FUW2_05</Tag>
        <Name>Von Großhabersdorf zu den &quot;Sieben Richtern&quot; und zum &quot;Heidenhügel&quot;</Name>
        <Laenge>16.0</Laenge>
        <Dauer>4.5</Dauer>
        <Charakter>leichtes Gelände</Charakter>
        <Lon>10.787354</Lon>
        <Lat>49.405830</Lat>
        <Datum>2009-01-06</Datum>
        <Streckenwanderung>0</Streckenwanderung>
    </walks>
    <walks>
        <Tag>FUW2_04</Tag>
        <Name>Von Burgfarrnbach auf den Dillenberg</Name>
        <Laenge>28.0</Laenge>
        <Dauer>7.0</Dauer>
        <Charakter>überwiegend leichtes Gelände</Charakter>
        <Lon>10.924379</Lon>
        <Lat>49.485031</Lat>
        <Datum>2009-01-02</Datum>
        <Streckenwanderung>0</Streckenwanderung>
    </walks>
    <walks>
        <Tag>FUW2_03</Tag>
        <Name>Von der Alten Veste nach Cadolzburg</Name>
        <Laenge>25.0</Laenge>
        <Dauer>6.5</Dauer>
        <Charakter>leichtes Gelände</Charakter>
        <Lon>10.966348</Lon>
        <Lat>49.451721</Lat>
        <Datum>0000-00-00</Datum>
        <Streckenwanderung>0</Streckenwanderung>
    </walks>
    <walks>
        <Tag>FUW2_02</Tag>
        <Name>Vom Farrnbach zum &quot;Rangaublick&quot;</Name>
        <Laenge>10.0</Laenge>
        <Dauer>3.0</Dauer>
        <Charakter>leichtes und mittelschweres Gelände</Charakter>
        <Lon>10.920739</Lon>
        <Lat>49.488167</Lat>
        <Datum>0000-00-00</Datum>
        <Streckenwanderung>0</Streckenwanderung>
    </walks>
    <walks>
        <Tag>FUW2_01</Tag>
        <Name>Vom Rhein-Main-Donau-Kanal zur Veitsbronner Wehrkirche</Name>
        <Laenge>22.0</Laenge>
        <Dauer>5.5</Dauer>
        <Charakter>leichtes Gelände</Charakter>
        <Lon>10.944390</Lon>
        <Lat>49.489964</Lat>
        <Datum>0000-00-00</Datum>
        <Streckenwanderung>0</Streckenwanderung>
    </walks>
    <walks>
        <Tag>FUW3_67</Tag>
        <Name>Zu landschaftlichen und kulturellen Höhepunkten im Auerbacher Land</Name>
        <Laenge>20.0</Laenge>
        <Dauer>5.5</Dauer>
        <Charakter>leichtes Gelände</Charakter>
        <Lon>11.608064</Lon>
        <Lat>49.668915</Lat>
        <Datum>2009-04-25</Datum>
        <Streckenwanderung>0</Streckenwanderung>
    </walks>
    <walks>
        <Tag>FUW3_68</Tag>
        <Name>Zu historischen Stätten um Velden</Name>
        <Laenge>13.0</Laenge>
        <Dauer>3.5</Dauer>
        <Charakter>überwiegend leichtes Gelände</Charakter>
        <Lon>11.511046</Lon>
        <Lat>49.614059</Lat>
        <Datum>0000-00-00</Datum>
        <Streckenwanderung>0</Streckenwanderung>
    </walks>
    <walks>
        <Tag>FUW3_69</Tag>
        <Name>Zu einstigen Rittersitzen am Südrand der Fränkischen Schweiz</Name>
        <Laenge>22.0</Laenge>
        <Dauer>6.0</Dauer>
        <Charakter>mittelschweres Gelände</Charakter>
        <Lon>11.378133</Lon>
        <Lat>49.632420</Lat>
        <Datum>0000-00-00</Datum>
        <Streckenwanderung>0</Streckenwanderung>
    </walks>
    <walks>
        <Tag>FUW3_70</Tag>
        <Name>Vom Burgstall auf der &quot;Katz&quot; zur Lillachquelle und zum &quot;Teufelstisch&quot;</Name>
        <Laenge>20.0</Laenge>
        <Dauer>5.5</Dauer>
        <Charakter>mittelschweres Gelände</Charakter>
        <Lon>11.250711</Lon>
        <Lat>49.640907</Lat>
        <Datum>0000-00-00</Datum>
        <Streckenwanderung>0</Streckenwanderung>
    </walks>
    <walks>
        <Tag>FUW3_66</Tag>
        <Name>Nach Vilseck, einer ehemaligen bambergischen Enklave in der Oberpfalz</Name>
        <Laenge>23.0</Laenge>
        <Dauer>5.5</Dauer>
        <Charakter>leichtes Gelände</Charakter>
        <Lon>11.802732</Lon>
        <Lat>49.615364</Lat>
        <Datum>0000-00-00</Datum>
        <Streckenwanderung>0</Streckenwanderung>
    </walks>
    <walks>
        <Tag>FUW3_65</Tag>
        <Name>Über den Steinberg-Felsensteig zur Breitensteiner Doppelkapelle</Name>
        <Laenge>10.0</Laenge>
        <Dauer>3.5</Dauer>
        <Charakter>teils schwieriges Gelände, daher nur bei trockener Witterung zu empfehlen</Charakter>
        <Lon>11.633449</Lon>
        <Lat>49.606922</Lat>
        <Datum>2009-05-09</Datum>
        <Streckenwanderung>0</Streckenwanderung>
    </walks>
    <walks>
        <Tag>FUW3_64</Tag>
        <Name>Von Hirschbach in den Rinnenbrunner Wald</Name>
        <Laenge>20.0</Laenge>
        <Dauer>5.0</Dauer>
        <Charakter>leichtes Gelände</Charakter>
        <Lon>11.540843</Lon>
        <Lat>49.556328</Lat>
        <Datum>2008-11-01</Datum>
        <Streckenwanderung>0</Streckenwanderung>
    </walks>
    <walks>
        <Tag>FUW3_63</Tag>
        <Name>Über die &quot;Zant&quot; zur Osterhöhle und auf den Hartenfels</Name>
        <Laenge>22.0</Laenge>
        <Dauer>6.0</Dauer>
        <Charakter>überwiegend leichtes Gelände</Charakter>
        <Lon>11.619236</Lon>
        <Lat>49.524731</Lat>
        <Datum>0000-00-00</Datum>
        <Streckenwanderung>0</Streckenwanderung>
    </walks>
    <walks>
        <Tag>FUW3_60</Tag>
        <Name>In den Grafenbucher Forst</Name>
        <Laenge>19.0</Laenge>
        <Dauer>5.0</Dauer>
        <Charakter>überwiegend leichtes Gelände</Charakter>
        <Lon>11.509922</Lon>
        <Lat>49.425667</Lat>
        <Datum>0000-00-00</Datum>
        <Streckenwanderung>0</Streckenwanderung>
    </walks>
    <walks>
        <Tag>FUW3_61</Tag>
        <Name>Auf dem &quot;Alten Postweg&quot; von Hartmannshof nach Sulzbach</Name>
        <Laenge>16.0</Laenge>
        <Dauer>4.0</Dauer>
        <Charakter>leichtes Gelände</Charakter>
        <Lon>11.556106</Lon>
        <Lat>49.497921</Lat>
        <Datum>0000-00-00</Datum>
        <Streckenwanderung>0</Streckenwanderung>
    </walks>
    <walks>
        <Tag>FUW3_62</Tag>
        <Name>Von Hartmannshof ins Altdorfer Land</Name>
        <Laenge>22.0</Laenge>
        <Dauer>5.5</Dauer>
        <Charakter>überwiegend leichtes Gelände</Charakter>
        <Lon>11.556106</Lon>
        <Lat>49.497921</Lat>
        <Datum>0000-00-00</Datum>
        <Streckenwanderung>0</Streckenwanderung>
    </walks>
    <walks>
        <Tag>FUW3_59</Tag>
        <Name>Auf die Höhen über dem Albachtal</Name>
        <Laenge>19.0</Laenge>
        <Dauer>5.0</Dauer>
        <Charakter>leichtes Gelände</Charakter>
        <Lon>11.544261</Lon>
        <Lat>49.429237</Lat>
        <Datum>0000-00-00</Datum>
        <Streckenwanderung>0</Streckenwanderung>
    </walks>
    <walks>
        <Tag>FUW1_44</Tag>
        <Name>Zur &quot;Schlangenfichte&quot; und durchs Reichental</Name>
        <Laenge>11.0</Laenge>
        <Dauer>2.5</Dauer>
        <Charakter></Charakter>
        <Lon>11.540842</Lon>
        <Lat>49.556328</Lat>
        <Datum>0000-00-00</Datum>
        <Streckenwanderung>0</Streckenwanderung>
    </walks>
    <walks>
        <Tag>FUW1_01</Tag>
        <Name>Von Kraftshof in den westlichen Sebalder Reichswald</Name>
        <Laenge>11.0</Laenge>
        <Dauer>2.5</Dauer>
        <Charakter></Charakter>
        <Lon>11.046770</Lon>
        <Lat>49.512432</Lat>
        <Datum>0000-00-00</Datum>
        <Streckenwanderung>0</Streckenwanderung>
    </walks>
    <walks>
        <Tag>FUW1_02</Tag>
        <Name>Über das &quot;Frauenkreuz&quot; zur Gründlach</Name>
        <Laenge>13.2</Laenge>
        <Dauer>3.0</Dauer>
        <Charakter></Charakter>
        <Lon>11.111405</Lon>
        <Lat>49.504059</Lat>
        <Datum>0000-00-00</Datum>
        <Streckenwanderung>0</Streckenwanderung>
    </walks>
    <walks>
        <Tag>FUW1_03</Tag>
        <Name>Rings um den Haidberg bei Heroldsberg</Name>
        <Laenge>6.6</Laenge>
        <Dauer>1.5</Dauer>
        <Charakter></Charakter>
        <Lon>11.134692</Lon>
        <Lat>49.506210</Lat>
        <Datum>0000-00-00</Datum>
        <Streckenwanderung>0</Streckenwanderung>
    </walks>
    <walks>
        <Tag>FUW1_04</Tag>
        <Name>Der Gründlach und dem Simmelbach entlang</Name>
        <Laenge>16.5</Laenge>
        <Dauer>4.0</Dauer>
        <Charakter></Charakter>
        <Lon>11.134686</Lon>
        <Lat>49.506207</Lat>
        <Datum>0000-00-00</Datum>
        <Streckenwanderung>0</Streckenwanderung>
    </walks>
    <walks>
        <Tag>FUW1_05</Tag>
        <Name>Durch die Waldungen zwischen Heroldsberg und Haidberg</Name>
        <Laenge>13.2</Laenge>
        <Dauer>3.0</Dauer>
        <Charakter></Charakter>
        <Lon>11.134686</Lon>
        <Lat>49.506207</Lat>
        <Datum>0000-00-00</Datum>
        <Streckenwanderung>0</Streckenwanderung>
    </walks>
    <walks>
        <Tag>FUW1_06</Tag>
        <Name>Ins Jungferntal, zu den Sambach- und Kreuzweihern</Name>
        <Laenge>11.0</Laenge>
        <Dauer>2.5</Dauer>
        <Charakter></Charakter>
        <Lon>11.190605</Lon>
        <Lat>49.594467</Lat>
        <Datum>0000-00-00</Datum>
        <Streckenwanderung>0</Streckenwanderung>
    </walks>
    <walks>
        <Tag>FUW1_07</Tag>
        <Name>Von Eschenau zum Beerbacher Kirchlein und nach Neunhof</Name>
        <Laenge>15.4</Laenge>
        <Dauer>3.5</Dauer>
        <Charakter></Charakter>
        <Lon>11.132201</Lon>
        <Lat>49.557972</Lat>
        <Datum>0000-00-00</Datum>
        <Streckenwanderung>0</Streckenwanderung>
    </walks>
    <walks>
        <Tag>FUW1_08</Tag>
        <Name>Ein Streifzug zur &quot;Bärenmarter&quot; und &quot;Roten Marter&quot;</Name>
        <Laenge>11.0</Laenge>
        <Dauer>2.5</Dauer>
        <Charakter></Charakter>
        <Lon>11.200203</Lon>
        <Lat>49.480221</Lat>
        <Datum>0000-00-00</Datum>
        <Streckenwanderung>0</Streckenwanderung>
    </walks>
    <walks>
        <Tag>FUW1_09</Tag>
        <Name>Von Oedenberg aus in den Sebalder Wald</Name>
        <Laenge>11.0</Laenge>
        <Dauer>2.5</Dauer>
        <Charakter></Charakter>
        <Lon>11.205114</Lon>
        <Lat>49.532986</Lat>
        <Datum>0000-00-00</Datum>
        <Streckenwanderung>0</Streckenwanderung>
    </walks>
    <walks>
        <Tag>FUW1_10</Tag>
        <Name>Zu alten Herrensitzen am Rande des Reichswaldes</Name>
        <Laenge>13.2</Laenge>
        <Dauer>3.0</Dauer>
        <Charakter></Charakter>
        <Lon>11.222472</Lon>
        <Lat>49.533840</Lat>
        <Datum>0000-00-00</Datum>
        <Streckenwanderung>0</Streckenwanderung>
    </walks>
    <walks>
        <Tag>FUW1_11</Tag>
        <Name>Über den Steinberg zur &quot;Bitterbachschlucht&quot;</Name>
        <Laenge>13.2</Laenge>
        <Dauer>3.0</Dauer>
        <Charakter></Charakter>
        <Lon>11.258472</Lon>
        <Lat>49.514015</Lat>
        <Datum>0000-00-00</Datum>
        <Streckenwanderung>0</Streckenwanderung>
    </walks>
    <walks>
        <Tag>FUW1_12</Tag>
        <Name>Durch stille Waldungen im Neunhofer Land</Name>
        <Laenge>15.4</Laenge>
        <Dauer>3.5</Dauer>
        <Charakter></Charakter>
        <Lon>11.231303</Lon>
        <Lat>49.554291</Lat>
        <Datum>0000-00-00</Datum>
        <Streckenwanderung>0</Streckenwanderung>
    </walks>
    <walks>
        <Tag>FUW1_13</Tag>
        <Name>Zu den Steinbrüchen am Kornberg</Name>
        <Laenge>11.0</Laenge>
        <Dauer>2.5</Dauer>
        <Charakter></Charakter>
        <Lon>11.099428</Lon>
        <Lat>49.374722</Lat>
        <Datum>0000-00-00</Datum>
        <Streckenwanderung>0</Streckenwanderung>
    </walks>
    <walks>
        <Tag>FUW1_14</Tag>
        <Name>Übers Hintere Wernloch zum Glasersberg</Name>
        <Laenge>8.8</Laenge>
        <Dauer>2.0</Dauer>
        <Charakter></Charakter>
        <Lon>11.145067</Lon>
        <Lat>49.353420</Lat>
        <Datum>0000-00-00</Datum>
        <Streckenwanderung>0</Streckenwanderung>
    </walks>
    <walks>
        <Tag>FUW1_15</Tag>
        <Name>Über den Hutberg nach Birnthon</Name>
        <Laenge>15.4</Laenge>
        <Dauer>3.5</Dauer>
        <Charakter></Charakter>
        <Lon>11.196014</Lon>
        <Lat>49.418816</Lat>
        <Datum>0000-00-00</Datum>
        <Streckenwanderung>0</Streckenwanderung>
    </walks>
    <walks>
        <Tag>FUW1_16</Tag>
        <Name>Zum Hubertusbrünnlein und nach Moosbach</Name>
        <Laenge>13.2</Laenge>
        <Dauer>3.0</Dauer>
        <Charakter></Charakter>
        <Lon>11.214278</Lon>
        <Lat>49.375057</Lat>
        <Datum>0000-00-00</Datum>
        <Streckenwanderung>0</Streckenwanderung>
    </walks>
    <walks>
        <Tag>FUW1_17</Tag>
        <Name>Rund um den zweiten Schwarzachdurchbruch</Name>
        <Laenge>8.8</Laenge>
        <Dauer>2.0</Dauer>
        <Charakter></Charakter>
        <Lon>11.245383</Lon>
        <Lat>49.357964</Lat>
        <Datum>2009-05-22</Datum>
        <Streckenwanderung>0</Streckenwanderung>
    </walks>
    <walks>
        <Tag>FUW1_18</Tag>
        <Name>Über Haimendorf zum Moritzberg</Name>
        <Laenge>11.0</Laenge>
        <Dauer>2.5</Dauer>
        <Charakter></Charakter>
        <Lon>11.268475</Lon>
        <Lat>49.471554</Lat>
        <Datum>0000-00-00</Datum>
        <Streckenwanderung>0</Streckenwanderung>
    </walks>
    <walks>
        <Tag>FUW1_19</Tag>
        <Name>Zu den Rhätschluchten um Altdorf</Name>
        <Laenge>13.2</Laenge>
        <Dauer>3.0</Dauer>
        <Charakter></Charakter>
        <Lon>11.356403</Lon>
        <Lat>49.385777</Lat>
        <Datum>0000-00-00</Datum>
        <Streckenwanderung>0</Streckenwanderung>
    </walks>
    <walks>
        <Tag>FUW1_20</Tag>
        <Name>Quer durch den Lorenzer Wald</Name>
        <Laenge>15.4</Laenge>
        <Dauer>3.5</Dauer>
        <Charakter></Charakter>
        <Lon>11.195428</Lon>
        <Lat>49.419353</Lat>
        <Datum>0000-00-00</Datum>
        <Streckenwanderung>0</Streckenwanderung>
    </walks>
    <walks>
        <Tag>FUW1_21</Tag>
        <Name>Auf den Dillenberg bei Cadolzburg</Name>
        <Laenge>15.4</Laenge>
        <Dauer>3.5</Dauer>
        <Charakter></Charakter>
        <Lon>10.851978</Lon>
        <Lat>49.458084</Lat>
        <Datum>0000-00-00</Datum>
        <Streckenwanderung>0</Streckenwanderung>
    </walks>
    <walks>
        <Tag>FUW1_22</Tag>
        <Name>Durch den &quot;Klingengraben&quot; nach Weihersbuch</Name>
        <Laenge>11.0</Laenge>
        <Dauer>2.5</Dauer>
        <Charakter></Charakter>
        <Lon>11.015539</Lon>
        <Lat>49.414665</Lat>
        <Datum>0000-00-00</Datum>
        <Streckenwanderung>0</Streckenwanderung>
    </walks>
    <walks>
        <Tag>FUW1_23</Tag>
        <Name>Vom Zwieselgrund zum Locher Grund</Name>
        <Laenge>11.0</Laenge>
        <Dauer>2.5</Dauer>
        <Charakter></Charakter>
        <Lon>10.969706</Lon>
        <Lat>49.391693</Lat>
        <Datum>0000-00-00</Datum>
        <Streckenwanderung>0</Streckenwanderung>
    </walks>
    <walks>
        <Tag>FUW1_24</Tag>
        <Name>Vom Fembachtal zum vorgeschichtlichen Grabhügel im Hardtwald</Name>
        <Laenge>8.8</Laenge>
        <Dauer>2.0</Dauer>
        <Charakter></Charakter>
        <Lon>10.855361</Lon>
        <Lat>49.509254</Lat>
        <Datum>0000-00-00</Datum>
        <Streckenwanderung>0</Streckenwanderung>
    </walks>
    <walks>
        <Tag>FUW1_25</Tag>
        <Name>Zum Zimmermannsweiher im Kammerholz</Name>
        <Laenge>11.0</Laenge>
        <Dauer>2.5</Dauer>
        <Charakter></Charakter>
        <Lon>10.801106</Lon>
        <Lat>49.496147</Lat>
        <Datum>0000-00-00</Datum>
        <Streckenwanderung>0</Streckenwanderung>
    </walks>
    <walks>
        <Tag>FUW1_26</Tag>
        <Name>Zwischen Aurach und Fembach</Name>
        <Laenge>15.4</Laenge>
        <Dauer>3.5</Dauer>
        <Charakter></Charakter>
        <Lon>10.769106</Lon>
        <Lat>49.535423</Lat>
        <Datum>0000-00-00</Datum>
        <Streckenwanderung>0</Streckenwanderung>
    </walks>
    <walks>
        <Tag>FUW1_27</Tag>
        <Name>Rund um den Glatzenstein</Name>
        <Laenge>6.6</Laenge>
        <Dauer>1.5</Dauer>
        <Charakter></Charakter>
        <Lon>11.070814</Lon>
        <Lat>49.681808</Lat>
        <Datum>0000-00-00</Datum>
        <Streckenwanderung>0</Streckenwanderung>
    </walks>
    <walks>
        <Tag>FUW1_28</Tag>
        <Name>Um den Siegersdorfer Talkessel</Name>
        <Laenge>8.8</Laenge>
        <Dauer>2.0</Dauer>
        <Charakter></Charakter>
        <Lon>11.375339</Lon>
        <Lat>49.553738</Lat>
        <Datum>0000-00-00</Datum>
        <Streckenwanderung>0</Streckenwanderung>
    </walks>
    <walks>
        <Tag>FUW1_29</Tag>
        <Name>Zum &quot;Hansgörgl&quot; und &quot;Glatzenstein&quot;</Name>
        <Laenge>11.0</Laenge>
        <Dauer>2.5</Dauer>
        <Charakter></Charakter>
        <Lon>11.375339</Lon>
        <Lat>49.553738</Lat>
        <Datum>0000-00-00</Datum>
        <Streckenwanderung>0</Streckenwanderung>
    </walks>
    <walks>
        <Tag>FUW1_30</Tag>
        <Name>Zur Festungsruine am Rothenberg</Name>
        <Laenge>4.4</Laenge>
        <Dauer>1.0</Dauer>
        <Charakter></Charakter>
        <Lon>11.374633</Lon>
        <Lat>49.558662</Lat>
        <Datum>0000-00-00</Datum>
        <Streckenwanderung>0</Streckenwanderung>
    </walks>
    <walks>
        <Tag>FUW1_31</Tag>
        <Name>Rund um den Osternoher Talkessel</Name>
        <Laenge>13.2</Laenge>
        <Dauer>3.0</Dauer>
        <Charakter></Charakter>
        <Lon>11.377383</Lon>
        <Lat>49.587139</Lat>
        <Datum>0000-00-00</Datum>
        <Streckenwanderung>0</Streckenwanderung>
    </walks>
    <walks>
        <Tag>FUW1_32</Tag>
        <Name>Auf den Hienberg und durchs Osternoher Tal</Name>
        <Laenge>8.8</Laenge>
        <Dauer>2.0</Dauer>
        <Charakter></Charakter>
        <Lon>11.369833</Lon>
        <Lat>49.586449</Lat>
        <Datum>0000-00-00</Datum>
        <Streckenwanderung>0</Streckenwanderung>
    </walks>
    <walks>
        <Tag>FUW1_33</Tag>
        <Name>Von Velden ins Ankatal</Name>
        <Laenge>13.2</Laenge>
        <Dauer>3.0</Dauer>
        <Charakter></Charakter>
        <Lon>11.510744</Lon>
        <Lat>49.613075</Lat>
        <Datum>0000-00-00</Datum>
        <Streckenwanderung>0</Streckenwanderung>
    </walks>
    <walks>
        <Tag>FUW1_34</Tag>
        <Name>Vom Hohenstein auf Höhenwegen über dem Pegnitztal</Name>
        <Laenge>11.0</Laenge>
        <Dauer>2.5</Dauer>
        <Charakter></Charakter>
        <Lon>11.424200</Lon>
        <Lat>49.586803</Lat>
        <Datum>0000-00-00</Datum>
        <Streckenwanderung>0</Streckenwanderung>
    </walks>
    <walks>
        <Tag>FUW1_35</Tag>
        <Name>Vom Hohenstein zum Schloßberg</Name>
        <Laenge>19.8</Laenge>
        <Dauer>4.5</Dauer>
        <Charakter></Charakter>
        <Lon>11.424200</Lon>
        <Lat>49.586803</Lat>
        <Datum>0000-00-00</Datum>
        <Streckenwanderung>0</Streckenwanderung>
    </walks>
    <walks>
        <Tag>FUW1_36</Tag>
        <Name>Über Sigrizberg durchs &quot;Enge Tal&quot; und über den &quot;Vogelherd&quot;</Name>
        <Laenge>11.0</Laenge>
        <Dauer>2.5</Dauer>
        <Charakter></Charakter>
        <Lon>11.474764</Lon>
        <Lat>49.585899</Lat>
        <Datum>0000-00-00</Datum>
        <Streckenwanderung>0</Streckenwanderung>
    </walks>
    <walks>
        <Tag>FUW1_37</Tag>
        <Name>Nach Kreppling und zur alten Griesmühle</Name>
        <Laenge>8.8</Laenge>
        <Dauer>2.0</Dauer>
        <Charakter></Charakter>
        <Lon>11.480597</Lon>
        <Lat>49.600693</Lat>
        <Datum>0000-00-00</Datum>
        <Streckenwanderung>0</Streckenwanderung>
    </walks>
    <walks>
        <Tag>FUW1_38</Tag>
        <Name>Rund um den Pleßel- und Leitenberg</Name>
        <Laenge>13.2</Laenge>
        <Dauer>3.0</Dauer>
        <Charakter></Charakter>
        <Lon>11.512603</Lon>
        <Lat>49.502949</Lat>
        <Datum>0000-00-00</Datum>
        <Streckenwanderung>0</Streckenwanderung>
    </walks>
    <walks>
        <Tag>FUW1_39</Tag>
        <Name>Von Bürtel aus in die Felsenwelt des &quot;Schwarzen Brandes&quot;</Name>
        <Laenge>8.8</Laenge>
        <Dauer>2.0</Dauer>
        <Charakter></Charakter>
        <Lon>11.540364</Lon>
        <Lat>49.529949</Lat>
        <Datum>0000-00-00</Datum>
        <Streckenwanderung>0</Streckenwanderung>
    </walks>
    <walks>
        <Tag>FUW1_40</Tag>
        <Name>Vom Hirschbachtal nach Hubmersberg</Name>
        <Laenge>11.0</Laenge>
        <Dauer>2.5</Dauer>
        <Charakter></Charakter>
        <Lon>11.488747</Lon>
        <Lat>49.532223</Lat>
        <Datum>0000-00-00</Datum>
        <Streckenwanderung>0</Streckenwanderung>
    </walks>
    <walks>
        <Tag>FUW1_41</Tag>
        <Name>Rund um die &quot;Eschenbacher Koppe&quot;</Name>
        <Laenge>11.0</Laenge>
        <Dauer>2.5</Dauer>
        <Charakter></Charakter>
        <Lon>11.488747</Lon>
        <Lat>49.532223</Lat>
        <Datum>0000-00-00</Datum>
        <Streckenwanderung>0</Streckenwanderung>
    </walks>
    <walks>
        <Tag>FUW1_42</Tag>
        <Name>Rings um den Atzelstein</Name>
        <Laenge>13.2</Laenge>
        <Dauer>3.0</Dauer>
        <Charakter></Charakter>
        <Lon>11.508183</Lon>
        <Lat>49.542770</Lat>
        <Datum>0000-00-00</Datum>
        <Streckenwanderung>0</Streckenwanderung>
    </walks>
    <walks>
        <Tag>FUW1_43</Tag>
        <Name>Zum &quot;Prellstein&quot; und zum &quot;Mittagsfelsen&quot; im &quot;Schwarzen Brand&quot;</Name>
        <Laenge>8.8</Laenge>
        <Dauer>2.0</Dauer>
        <Charakter></Charakter>
        <Lon>11.540842</Lon>
        <Lat>49.556328</Lat>
        <Datum>0000-00-00</Datum>
        <Streckenwanderung>0</Streckenwanderung>
    </walks>
    <walks>
        <Tag>FUW3_58</Tag>
        <Name>Im südöstlichen Birgland</Name>
        <Laenge>20.0</Laenge>
        <Dauer>5.0</Dauer>
        <Charakter>leichtes Gelände</Charakter>
        <Lon>11.653136</Lon>
        <Lat>49.425220</Lat>
        <Datum>0000-00-00</Datum>
        <Streckenwanderung>0</Streckenwanderung>
    </walks>
    <walks>
        <Tag>FUW3_56</Tag>
        <Name>Trockentalwanderung zwischen Ursensollen und Hausen</Name>
        <Laenge>18.0</Laenge>
        <Dauer>4.5</Dauer>
        <Charakter>leichtes Gelände</Charakter>
        <Lon>11.756483</Lon>
        <Lat>49.402493</Lat>
        <Datum>0000-00-00</Datum>
        <Streckenwanderung>0</Streckenwanderung>
    </walks>
    <walks>
        <Tag>FUW3_55</Tag>
        <Name>Von Amberg auf die Höhen beiderseits des Ammerbachs</Name>
        <Laenge>23.0</Laenge>
        <Dauer>6.0</Dauer>
        <Charakter>leichtes Gelände</Charakter>
        <Lon>11.861122</Lon>
        <Lat>49.446453</Lat>
        <Datum>0000-00-00</Datum>
        <Streckenwanderung>0</Streckenwanderung>
    </walks>
    <walks>
        <Tag>FUW3_52</Tag>
        <Name>Durch die &quot;Hundstürkei&quot; ins Lauterachtal</Name>
        <Laenge>18.0</Laenge>
        <Dauer>4.5</Dauer>
        <Charakter>leichtes Gelände</Charakter>
        <Lon>11.835155</Lon>
        <Lat>49.316814</Lat>
        <Datum>0000-00-00</Datum>
        <Streckenwanderung>0</Streckenwanderung>
    </walks>
    <walks>
        <Tag>FUW3_53</Tag>
        <Name>Durch den Hirschwald in den Vilsgrund</Name>
        <Laenge>12.0</Laenge>
        <Dauer>3.5</Dauer>
        <Charakter>leichtes Gelände</Charakter>
        <Lon>11.870844</Lon>
        <Lat>49.353378</Lat>
        <Datum>0000-00-00</Datum>
        <Streckenwanderung>0</Streckenwanderung>
    </walks>
    <walks>
        <Tag>FUW3_51</Tag>
        <Name>Vom Lauterachtal zum malerischen Felsschloß Heimhof</Name>
        <Laenge>21.0</Laenge>
        <Dauer>5.5</Dauer>
        <Charakter>leichtes Gelände</Charakter>
        <Lon>11.711104</Lon>
        <Lat>49.362186</Lat>
        <Datum>0000-00-00</Datum>
        <Streckenwanderung>0</Streckenwanderung>
    </walks>
    <walks>
        <Tag>MLUW2_60</Tag>
        <Name>Zum Weinreichsgrab im Limmersdorfer Forst</Name>
        <Laenge>18.0</Laenge>
        <Dauer>5.0</Dauer>
        <Charakter>hügeliges Gelände</Charakter>
        <Lon>11.397285</Lon>
        <Lat>50.025387</Lat>
        <Datum>0000-00-00</Datum>
        <Streckenwanderung>0</Streckenwanderung>
    </walks>
    <walks>
        <Tag>MLUW2_59</Tag>
        <Name>Auf den Görauer Anger und durchs Bärental</Name>
        <Laenge>21.0</Laenge>
        <Dauer>5.5</Dauer>
        <Charakter>überwiegend leichtes Gelände</Charakter>
        <Lon>11.240044</Lon>
        <Lat>50.085125</Lat>
        <Datum>0000-00-00</Datum>
        <Streckenwanderung>0</Streckenwanderung>
    </walks>
    <walks>
        <Tag>MLUW2_58</Tag>
        <Name>Durchs Kleinziegenfelder Tal</Name>
        <Laenge>21.0</Laenge>
        <Dauer>5.5</Dauer>
        <Charakter>welliges Gelände</Charakter>
        <Lon>11.202278</Lon>
        <Lat>50.019901</Lat>
        <Datum>0000-00-00</Datum>
        <Streckenwanderung>0</Streckenwanderung>
    </walks>
    <walks>
        <Tag>MLUW2_57</Tag>
        <Name>Zum Felsendorf Krögelstein und durch den Felsengarten von Sanspareil</Name>
        <Laenge>15.0</Laenge>
        <Dauer>3.5</Dauer>
        <Charakter>leichtes Gelände</Charakter>
        <Lon>11.300447</Lon>
        <Lat>50.001064</Lat>
        <Datum>2008-12-25</Datum>
        <Streckenwanderung>0</Streckenwanderung>
    </walks>
    <walks>
        <Tag>MLUW2_56</Tag>
        <Name>Von der Wiesent- und Aufseßquelle ins Paradies</Name>
        <Laenge>19.0</Laenge>
        <Dauer>5.0</Dauer>
        <Charakter>leichtes Gelände</Charakter>
        <Lon>11.158762</Lon>
        <Lat>49.977364</Lat>
        <Datum>2007-05-13</Datum>
        <Streckenwanderung>0</Streckenwanderung>
    </walks>
    <walks>
        <Tag>MLUW2_55</Tag>
        <Name>Über den Ludwager Kulm zur Giechburg und zum Gügel</Name>
        <Laenge>21.0</Laenge>
        <Dauer>5.5</Dauer>
        <Charakter>bis auf den Anstieg zur Giechburg leichtes Gelände</Charakter>
        <Lon>11.123207</Lon>
        <Lat>49.936459</Lat>
        <Datum>0000-00-00</Datum>
        <Streckenwanderung>0</Streckenwanderung>
    </walks>
    <walks>
        <Tag>MLUW2_54</Tag>
        <Name>Über den Stammberg ins Ellernbachtal</Name>
        <Laenge>15.0</Laenge>
        <Dauer>4.0</Dauer>
        <Charakter>bis auf den steilen Anstieg nach Herzogenreuth leichtes Gelände</Charakter>
        <Lon>11.080313</Lon>
        <Lat>49.936321</Lat>
        <Datum>0000-00-00</Datum>
        <Streckenwanderung>0</Streckenwanderung>
    </walks>
    <walks>
        <Tag>MLUW2_53</Tag>
        <Name>Von der Friesener Warte zum Leinleitertal</Name>
        <Laenge>22.0</Laenge>
        <Dauer>6.0</Dauer>
        <Charakter>überwiegend leichtes Gelände mit zwei steileren Anstiegen</Charakter>
        <Lon>11.076622</Lon>
        <Lat>49.831741</Lat>
        <Datum>0000-00-00</Datum>
        <Streckenwanderung>0</Streckenwanderung>
    </walks>
    <walks>
        <Tag>MLUW2_52</Tag>
        <Name>Von Waischenfeld auf die Neubürg</Name>
        <Laenge>20.0</Laenge>
        <Dauer>5.0</Dauer>
        <Charakter>hügeliges Gelände</Charakter>
        <Lon>11.345100</Lon>
        <Lat>49.846397</Lat>
        <Datum>0000-00-00</Datum>
        <Streckenwanderung>0</Streckenwanderung>
    </walks>
    <walks>
        <Tag>MLUW2_01</Tag>
        <Name>Aussichtsreicher Streifzug durch den Süden des Walberla</Name>
        <Laenge>23.0</Laenge>
        <Dauer>6.0</Dauer>
        <Charakter>leichtes bis mittelschweres Gelände</Charakter>
        <Lon>11.187429</Lon>
        <Lat>49.668682</Lat>
        <Datum>0000-00-00</Datum>
        <Streckenwanderung>0</Streckenwanderung>
    </walks>
    <walks>
        <Tag>MLUW2_02</Tag>
        <Name>Von Gräfenberg über Hiltpoltstein zur Lillachquelle und zum Kloster Weißenohe</Name>
        <Laenge>20.0</Laenge>
        <Dauer>5.0</Dauer>
        <Charakter>leichtes Gelände</Charakter>
        <Lon>11.250622</Lon>
        <Lat>49.640900</Lat>
        <Datum>2007-05-01</Datum>
        <Streckenwanderung>0</Streckenwanderung>
    </walks>
    <walks>
        <Tag>MLUW2_03</Tag>
        <Name>Über Egloffstein und Thuisbrunn zur Kasberger Gerichtslinde</Name>
        <Laenge>19.0</Laenge>
        <Dauer>5.0</Dauer>
        <Charakter>überwiegend leichtes Gelände</Charakter>
        <Lon>11.250622</Lon>
        <Lat>49.640900</Lat>
        <Datum>0000-00-00</Datum>
        <Streckenwanderung>0</Streckenwanderung>
    </walks>
    <walks>
        <Tag>MLUW2_04</Tag>
        <Name>Durchs Großenoher Tal und zum Egloffsteiner Kugelspiel</Name>
        <Laenge>13.0</Laenge>
        <Dauer>3.5</Dauer>
        <Charakter>überwiegend leichtes Gelände</Charakter>
        <Lon>11.259613</Lon>
        <Lat>49.703613</Lat>
        <Datum>0000-00-00</Datum>
        <Streckenwanderung>0</Streckenwanderung>
    </walks>
    <walks>
        <Tag>MLUW2_05</Tag>
        <Name>Von Egloffstein auf den Haidhofer Schlossberg und durchs Todsfeldtal</Name>
        <Laenge>16.0</Laenge>
        <Dauer>4.0</Dauer>
        <Charakter>überwiegend leichtes Gelände</Charakter>
        <Lon>11.259613</Lon>
        <Lat>49.703613</Lat>
        <Datum>2007-04-22</Datum>
        <Streckenwanderung>0</Streckenwanderung>
    </walks>
    <walks>
        <Tag>MLUW2_06</Tag>
        <Name>Zum Bergkirchlein St. Moritz</Name>
        <Laenge>19.0</Laenge>
        <Dauer>5.0</Dauer>
        <Charakter>hügeliges Gelände mit einigen Steilanstiegen</Charakter>
        <Lon>11.259613</Lon>
        <Lat>49.703613</Lat>
        <Datum>0000-00-00</Datum>
        <Streckenwanderung>0</Streckenwanderung>
    </walks>
    <walks>
        <Tag>MLUW2_07</Tag>
        <Name>Von Egloffstein auf den Balkenstein und nach Wichsenstein</Name>
        <Laenge>15.0</Laenge>
        <Dauer>4.5</Dauer>
        <Charakter>schwieriges und leichtes Gelände</Charakter>
        <Lon>11.259613</Lon>
        <Lat>49.703613</Lat>
        <Datum>2007-06-17</Datum>
        <Streckenwanderung>0</Streckenwanderung>
    </walks>
    <walks>
        <Tag>MLUW2_32</Tag>
        <Name>Auf die Höhen westlich der Leinleiter</Name>
        <Laenge>15.0</Laenge>
        <Dauer>4.0</Dauer>
        <Charakter>welliges Gelände</Charakter>
        <Lon>11.190155</Lon>
        <Lat>49.824017</Lat>
        <Datum>2007-05-27</Datum>
        <Streckenwanderung>0</Streckenwanderung>
    </walks>
    <walks>
        <Tag>MLUW2_31</Tag>
        <Name>Auf die Lange Meile, zum Flugplatz und zur Jugendburg Feuerstein</Name>
        <Laenge>12.0</Laenge>
        <Dauer>3.5</Dauer>
        <Charakter>leichtes bis mittelschweres Gelände</Charakter>
        <Lon>11.187344</Lon>
        <Lat>49.777481</Lat>
        <Datum>2007-09-09</Datum>
        <Streckenwanderung>0</Streckenwanderung>
    </walks>
    <walks>
        <Tag>MLUW2_30</Tag>
        <Name>Über aussichtsreiche Höhen zur Ruine Neideck</Name>
        <Laenge>22.0</Laenge>
        <Dauer>6.0</Dauer>
        <Charakter>hügeliges Gelände mit steilen Anstiegen</Charakter>
        <Lon>11.187344</Lon>
        <Lat>49.777481</Lat>
        <Datum>0000-00-00</Datum>
        <Streckenwanderung>0</Streckenwanderung>
    </walks>
    <walks>
        <Tag>MLUW2_29</Tag>
        <Name>Über den Röthelfels zum Wichsenstein</Name>
        <Laenge>17.0</Laenge>
        <Dauer>5.0</Dauer>
        <Charakter>hügeliges, teilweise schwieriges Gelände mit Steigungen</Charakter>
        <Lon>11.212771</Lon>
        <Lat>49.746613</Lat>
        <Datum>0000-00-00</Datum>
        <Streckenwanderung>0</Streckenwanderung>
    </walks>
    <walks>
        <Tag>MLUW2_28</Tag>
        <Name>Rund um dem Walberlaberg</Name>
        <Laenge>14.0</Laenge>
        <Dauer>4.0</Dauer>
        <Charakter>hügeliges Gelände</Charakter>
        <Lon>11.145517</Lon>
        <Lat>49.733643</Lat>
        <Datum>0000-00-00</Datum>
        <Streckenwanderung>0</Streckenwanderung>
    </walks>
    <walks>
        <Tag>MLUW2_27</Tag>
        <Name>Von Wiesenthau auf die Ehrenbürg</Name>
        <Laenge>10.0</Laenge>
        <Dauer>3.0</Dauer>
        <Charakter>hügeliges Gelände</Charakter>
        <Lon>11.135416</Lon>
        <Lat>49.712769</Lat>
        <Datum>2008-04-30</Datum>
        <Streckenwanderung>0</Streckenwanderung>
    </walks>
    <walks>
        <Tag>MLUW2_26</Tag>
        <Name>Über die Retterner Kanzel zur Vexierkapelle</Name>
        <Laenge>18.0</Laenge>
        <Dauer>4.5</Dauer>
        <Charakter>überwiegend leichtes Gelände</Charakter>
        <Lon>11.077437</Lon>
        <Lat>49.731747</Lat>
        <Datum>2008-04-26</Datum>
        <Streckenwanderung>0</Streckenwanderung>
    </walks>
    <walks>
        <Tag>MLUW2_25</Tag>
        <Name>Von Gößweinstein zum Wichsenstein und ins Wiesenttal</Name>
        <Laenge>22.0</Laenge>
        <Dauer>6.0</Dauer>
        <Charakter>überwiegend leichtes Gelände, am Schluss Anstieg</Charakter>
        <Lon>11.341517</Lon>
        <Lat>49.771420</Lat>
        <Datum>0000-00-00</Datum>
        <Streckenwanderung>0</Streckenwanderung>
    </walks>
    <walks>
        <Tag>MLUW2_24</Tag>
        <Name>Geruhsame Wanderung südlich von Gößweinstein</Name>
        <Laenge>18.0</Laenge>
        <Dauer>4.5</Dauer>
        <Charakter>leichtes Gelände</Charakter>
        <Lon>11.341517</Lon>
        <Lat>49.771420</Lat>
        <Datum>2007-06-24</Datum>
        <Streckenwanderung>0</Streckenwanderung>
    </walks>
    <walks>
        <Tag>MLUW2_23</Tag>
        <Name>Von Pottenstein auf die Hohenmirsberger Platte</Name>
        <Laenge>19.0</Laenge>
        <Dauer>5.0</Dauer>
        <Charakter>hügeliges, mitunter ansteigendes Gelände</Charakter>
        <Lon>11.491613</Lon>
        <Lat>49.824917</Lat>
        <Datum>0000-00-00</Datum>
        <Streckenwanderung>0</Streckenwanderung>
    </walks>
    <walks>
        <Tag>MLUW2_22</Tag>
        <Name>Auf Höhenwegen zur Ruine Hollenberg und zur Burg Pottenstein</Name>
        <Laenge>16.0</Laenge>
        <Dauer>4.0</Dauer>
        <Charakter>hügeliges, aber nicht übermäßig anstrengendes Gelände</Charakter>
        <Lon>11.491613</Lon>
        <Lat>49.824917</Lat>
        <Datum>2007-01-01</Datum>
        <Streckenwanderung>0</Streckenwanderung>
    </walks>
    <walks>
        <Tag>MLUW2_21</Tag>
        <Name>Von Trockau um die Hohe Manne zum oberen Ahorntal</Name>
        <Laenge>20.0</Laenge>
        <Dauer>5.5</Dauer>
        <Charakter>hügeliges, zwischendurch anstrengendes Gelände</Charakter>
        <Lon>11.491613</Lon>
        <Lat>49.824917</Lat>
        <Datum>0000-00-00</Datum>
        <Streckenwanderung>0</Streckenwanderung>
    </walks>
    <walks>
        <Tag>MLUW2_20</Tag>
        <Name>Ins Quellgebiet von Püttlach, Rotem Main und Fichtenohe</Name>
        <Laenge>19.0</Laenge>
        <Dauer>5.0</Dauer>
        <Charakter>überwiegend leichtes Gelände</Charakter>
        <Lon>11.491613</Lon>
        <Lat>49.824917</Lat>
        <Datum>0000-00-00</Datum>
        <Streckenwanderung>0</Streckenwanderung>
    </walks>
    <walks>
        <Tag>MLUW2_19</Tag>
        <Name>Von Trockau auf die Hohenmirsberger Platte</Name>
        <Laenge>17.0</Laenge>
        <Dauer>4.5</Dauer>
        <Charakter>überwiegend leichtes Gelände</Charakter>
        <Lon>11.491613</Lon>
        <Lat>49.824917</Lat>
        <Datum>0000-00-00</Datum>
        <Streckenwanderung>0</Streckenwanderung>
    </walks>
    <walks>
        <Tag>MLUW2_18</Tag>
        <Name>Durch den Schnabelwaider Kitschenrain</Name>
        <Laenge>20.0</Laenge>
        <Dauer>5.0</Dauer>
        <Charakter>welliges Gelände</Charakter>
        <Lon>11.583538</Lon>
        <Lat>49.804424</Lat>
        <Datum>0000-00-00</Datum>
        <Streckenwanderung>0</Streckenwanderung>
    </walks>
    <walks>
        <Tag>MLUW2_17</Tag>
        <Name>Von Pegnitz zur Ruine Hollenberg und auf den Kleinen Kulm</Name>
        <Laenge>17.0</Laenge>
        <Dauer>4.5</Dauer>
        <Charakter>hügeliges Gelände</Charakter>
        <Lon>11.547318</Lon>
        <Lat>49.756733</Lat>
        <Datum>0000-00-00</Datum>
        <Streckenwanderung>0</Streckenwanderung>
    </walks>
    <walks>
        <Tag>MLUW2_16</Tag>
        <Name>Zum Kanonier von Weidlwang und über den Zipser Berg</Name>
        <Laenge>22.0</Laenge>
        <Dauer>5.5</Dauer>
        <Charakter>überwiegend leichtes Gelände</Charakter>
        <Lon>11.547318</Lon>
        <Lat>49.756733</Lat>
        <Datum>2009-04-01</Datum>
        <Streckenwanderung>0</Streckenwanderung>
    </walks>
    <walks>
        <Tag>MLUW2_15</Tag>
        <Name>Auf dem Hubertussteig durch den Veldensteiner Forst</Name>
        <Laenge>23.0</Laenge>
        <Dauer>6.0</Dauer>
        <Charakter>überwiegend leichtes Gelände</Charakter>
        <Lon>11.494339</Lon>
        <Lat>49.698593</Lat>
        <Datum>0000-00-00</Datum>
        <Streckenwanderung>0</Streckenwanderung>
    </walks>
    <walks>
        <Tag>MLUW2_14</Tag>
        <Name>Fünftälerwanderung zwischen Bronn und Pottenstein</Name>
        <Laenge>19.0</Laenge>
        <Dauer>5.0</Dauer>
        <Charakter>leichtes Gelände</Charakter>
        <Lon>11.461487</Lon>
        <Lat>49.728195</Lat>
        <Datum>2007-04-28</Datum>
        <Streckenwanderung>0</Streckenwanderung>
    </walks>
    <walks>
        <Tag>MLUW2_13</Tag>
        <Name>Streifzug zwischen Bronn und Kühlenfels</Name>
        <Laenge>19.0</Laenge>
        <Dauer>5.0</Dauer>
        <Charakter>leichtes Gelände</Charakter>
        <Lon>11.461487</Lon>
        <Lat>49.728195</Lat>
        <Datum>2007-09-16</Datum>
        <Streckenwanderung>0</Streckenwanderung>
    </walks>
    <walks>
        <Tag>MLUW2_12</Tag>
        <Name>Nach Plech und Bernheck am Rand des Veldensteiner Forsts</Name>
        <Laenge>22.0</Laenge>
        <Dauer>5.5</Dauer>
        <Charakter>leichtes, teilweise welliges Gelände</Charakter>
        <Lon>11.415396</Lon>
        <Lat>49.681126</Lat>
        <Datum>0000-00-00</Datum>
        <Streckenwanderung>0</Streckenwanderung>
    </walks>
    <walks>
        <Tag>MLUW2_08</Tag>
        <Name>Von Hiltpoltstein ins Trubachtal und auf den Signalstein</Name>
        <Laenge>17.0</Laenge>
        <Dauer>4.5</Dauer>
        <Charakter>leichtes bis mittelschweres Gelände</Charakter>
        <Lon>11.319501</Lon>
        <Lat>49.661823</Lat>
        <Datum>0000-00-00</Datum>
        <Streckenwanderung>0</Streckenwanderung>
    </walks>
    <walks>
        <Tag>MLUW2_09</Tag>
        <Name>Rundblicke von der Ruine Leienfels und vom Signalstein</Name>
        <Laenge>15.0</Laenge>
        <Dauer>4.5</Dauer>
        <Charakter>hügeliges und steiles Gelände</Charakter>
        <Lon>11.314716</Lon>
        <Lat>49.688065</Lat>
        <Datum>0000-00-00</Datum>
        <Streckenwanderung>0</Streckenwanderung>
    </walks>
    <walks>
        <Tag>MLUW2_10</Tag>
        <Name>Streifzug durch den Südwesten von Betzenstein</Name>
        <Laenge>16.0</Laenge>
        <Dauer>4.0</Dauer>
        <Charakter>leichtes Gelände</Charakter>
        <Lon>11.415396</Lon>
        <Lat>49.681126</Lat>
        <Datum>0000-00-00</Datum>
        <Streckenwanderung>0</Streckenwanderung>
    </walks>
    <walks>
        <Tag>MLUW2_11</Tag>
        <Name>Von Betzenstein ins obere Trubachtal</Name>
        <Laenge>20.0</Laenge>
        <Dauer>5.5</Dauer>
        <Charakter>hügeliges Gelände</Charakter>
        <Lon>11.415396</Lon>
        <Lat>49.681126</Lat>
        <Datum>2009-05-03</Datum>
        <Streckenwanderung>0</Streckenwanderung>
    </walks>
    <walks>
        <Tag>MLUW2_51</Tag>
        <Name>Zu den Höhlen überm Rabensteiner Tal</Name>
        <Laenge>19.0</Laenge>
        <Dauer>5.0</Dauer>
        <Charakter>hügeliges, mitunter etwas schwierigeres Gelände</Charakter>
        <Lon>11.345100</Lon>
        <Lat>49.846397</Lat>
        <Datum>0000-00-00</Datum>
        <Streckenwanderung>0</Streckenwanderung>
    </walks>
    <walks>
        <Tag>MLUW2_50</Tag>
        <Name>Zur sagenumwobenen Riesenburg</Name>
        <Laenge>12.0</Laenge>
        <Dauer>3.5</Dauer>
        <Charakter>leichtes und mittelschweres Gelände</Charakter>
        <Lon>11.329222</Lon>
        <Lat>49.782124</Lat>
        <Datum>0000-00-00</Datum>
        <Streckenwanderung>0</Streckenwanderung>
    </walks>
    <walks>
        <Tag>MLUW2_49</Tag>
        <Name>Von Behringersmühle zur Weißen Marter</Name>
        <Laenge>12.0</Laenge>
        <Dauer>3.0</Dauer>
        <Charakter>überwiegend leichtes Gelände</Charakter>
        <Lon>11.329222</Lon>
        <Lat>49.782124</Lat>
        <Datum>0000-00-00</Datum>
        <Streckenwanderung>0</Streckenwanderung>
    </walks>
    <walks>
        <Tag>MLUW2_48</Tag>
        <Name>Zum Felsendorf Tüchersfeld, durch die Bärenschlucht und die Karl-Brückner-Anlage</Name>
        <Laenge>13.0</Laenge>
        <Dauer>3.5</Dauer>
        <Charakter>hügeliges Gelände</Charakter>
        <Lon>11.329222</Lon>
        <Lat>49.782124</Lat>
        <Datum>0000-00-00</Datum>
        <Streckenwanderung>0</Streckenwanderung>
    </walks>
    <walks>
        <Tag>MLUW2_47</Tag>
        <Name>Durch das untere Ailsbachtal und zum Felsendorf Tüchersfeld</Name>
        <Laenge>14.0</Laenge>
        <Dauer>3.5</Dauer>
        <Charakter>überwiegend leichtes Gelände</Charakter>
        <Lon>11.329222</Lon>
        <Lat>49.782124</Lat>
        <Datum>0000-00-00</Datum>
        <Streckenwanderung>0</Streckenwanderung>
    </walks>
    <walks>
        <Tag>MLUW2_46</Tag>
        <Name>Über den Pfaffenstein zur Wallfahrtsbasilika von Gößweinstein</Name>
        <Laenge>11.0</Laenge>
        <Dauer>3.0</Dauer>
        <Charakter>mittelschweres Gelände</Charakter>
        <Lon>11.329222</Lon>
        <Lat>49.782124</Lat>
        <Datum>0000-00-00</Datum>
        <Streckenwanderung>0</Streckenwanderung>
    </walks>
    <walks>
        <Tag>MLUW2_45</Tag>
        <Name>Durchs Aufseßtal zur Russenlinde von Breitenlesau</Name>
        <Laenge>18.0</Laenge>
        <Dauer>4.5</Dauer>
        <Charakter>überwiegend leichtes Gelände</Charakter>
        <Lon>11.282809</Lon>
        <Lat>49.821526</Lat>
        <Datum>0000-00-00</Datum>
        <Streckenwanderung>0</Streckenwanderung>
    </walks>
    <walks>
        <Tag>MLUW2_44</Tag>
        <Name>Längs der Aufseß und der Wiesent nach Waischenfeld und durch den Katzengraben zurück</Name>
        <Laenge>17.0</Laenge>
        <Dauer>4.5</Dauer>
        <Charakter>leichtes Gelände</Charakter>
        <Lon>11.282809</Lon>
        <Lat>49.821526</Lat>
        <Datum>0000-00-00</Datum>
        <Streckenwanderung>0</Streckenwanderung>
    </walks>
    <walks>
        <Tag>MLUW2_43</Tag>
        <Name>Über bizarre Felsbildungen zu Aussichtspunkten und zur Weißen Marter</Name>
        <Laenge>18.0</Laenge>
        <Dauer>5.0</Dauer>
        <Charakter>anstrengendes Gelände mit steilen An- und Abstiegen</Charakter>
        <Lon>11.258991</Lon>
        <Lat>49.803013</Lat>
        <Datum>0000-00-00</Datum>
        <Streckenwanderung>0</Streckenwanderung>
    </walks>
    <walks>
        <Tag>MLUW2_41</Tag>
        <Name>Von Mistelgau auf die Neubürg</Name>
        <Laenge>17.0</Laenge>
        <Dauer>4.5</Dauer>
        <Charakter>hügeliges Gelände</Charakter>
        <Lon>11.460006</Lon>
        <Lat>49.909313</Lat>
        <Datum>0000-00-00</Datum>
        <Streckenwanderung>0</Streckenwanderung>
    </walks>
    <walks>
        <Tag>MLUW2_42</Tag>
        <Name>Auf Felsenpfaden zu den Ruinen Streitburg und Neideck</Name>
        <Laenge>13.0</Laenge>
        <Dauer>4.0</Dauer>
        <Charakter>hügeliges, mitunter schwieriges Gelände</Charakter>
        <Lon>11.258991</Lon>
        <Lat>49.803013</Lat>
        <Datum>0000-00-00</Datum>
        <Streckenwanderung>0</Streckenwanderung>
    </walks>
    <walks>
        <Tag>MLUW2_40</Tag>
        <Name>Zum Lieblingsaufenthalt Richard Wagners</Name>
        <Laenge>23.0</Laenge>
        <Dauer>6.0</Dauer>
        <Charakter>hügeliges Gelände</Charakter>
        <Lon>11.402242</Lon>
        <Lat>49.941029</Lat>
        <Datum>0000-00-00</Datum>
        <Streckenwanderung>0</Streckenwanderung>
    </walks>
    <walks>
        <Tag>MLUW2_39</Tag>
        <Name>Rundblicke von den Höhen um Obernsees</Name>
        <Laenge>13.0</Laenge>
        <Dauer>3.5</Dauer>
        <Charakter>hügeliges Gelände</Charakter>
        <Lon>11.395097</Lon>
        <Lat>49.917782</Lat>
        <Datum>0000-00-00</Datum>
        <Streckenwanderung>0</Streckenwanderung>
    </walks>
    <walks>
        <Tag>MLUW2_38</Tag>
        <Name>Durchs Kainach- und Wacholdertal zu den Felsengrotten von Sanspareil</Name>
        <Laenge>20.0</Laenge>
        <Dauer>5.0</Dauer>
        <Charakter>überwiegend leichtes Gelände</Charakter>
        <Lon>11.289825</Lon>
        <Lat>49.938187</Lat>
        <Datum>0000-00-00</Datum>
        <Streckenwanderung>0</Streckenwanderung>
    </walks>
    <walks>
        <Tag>MLUW2_37</Tag>
        <Name>Zu den Burgen der oberen Wiesent</Name>
        <Laenge>14.0</Laenge>
        <Dauer>3.5</Dauer>
        <Charakter>leichtes Gelände</Charakter>
        <Lon>11.280727</Lon>
        <Lat>49.941334</Lat>
        <Datum>0000-00-00</Datum>
        <Streckenwanderung>0</Streckenwanderung>
    </walks>
    <walks>
        <Tag>MLUW2_36</Tag>
        <Name>Zu den Schlössern Unteraufseß und Greifenstein</Name>
        <Laenge>19.0</Laenge>
        <Dauer>5.0</Dauer>
        <Charakter>überwiegend leichtes Gelände</Charakter>
        <Lon>11.249936</Lon>
        <Lat>49.860050</Lat>
        <Datum>0000-00-00</Datum>
        <Streckenwanderung>0</Streckenwanderung>
    </walks>
    <walks>
        <Tag>MLUW2_35</Tag>
        <Name>Nach Hollfeld und durchs Aufseßtal</Name>
        <Laenge>19.0</Laenge>
        <Dauer>4.5</Dauer>
        <Charakter>leichtes Gelände</Charakter>
        <Lon>11.230087</Lon>
        <Lat>49.881252</Lat>
        <Datum>0000-00-00</Datum>
        <Streckenwanderung>0</Streckenwanderung>
    </walks>
    <walks>
        <Tag>FUW3_54</Tag>
        <Name>Ins Vilstal zum ehemaligen Hammerschloß Theuern</Name>
        <Laenge>11.0</Laenge>
        <Dauer>3.0</Dauer>
        <Charakter>leichtes Gelände, für sehr heiße Tage besonders geeignet</Charakter>
        <Lon>11.912200</Lon>
        <Lat>49.366627</Lat>
        <Datum>0000-00-00</Datum>
        <Streckenwanderung>0</Streckenwanderung>
    </walks>
    <walks>
        <Tag>FUW3_50</Tag>
        <Name>Von der Lauterachquelle in den Grafenbucher Forst</Name>
        <Laenge>19.0</Laenge>
        <Dauer>5.0</Dauer>
        <Charakter>leichtes Gelände</Charakter>
        <Lon>11.599161</Lon>
        <Lat>49.368744</Lat>
        <Datum>2008-09-11</Datum>
        <Streckenwanderung>0</Streckenwanderung>
    </walks>
    <walks>
        <Tag>FUW3_47</Tag>
        <Name>Von Daßwang ins Tal der Bachhaupter und Wissinger Laaber</Name>
        <Laenge>21.0</Laenge>
        <Dauer>5.0</Dauer>
        <Charakter>leichtes Gelände</Charakter>
        <Lon>11.661548</Lon>
        <Lat>49.144794</Lat>
        <Datum>0000-00-00</Datum>
        <Streckenwanderung>0</Streckenwanderung>
    </walks>
    <walks>
        <Tag>FUW3_49</Tag>
        <Name>Durch die Landschaft um den Habsberg</Name>
        <Laenge>17.0</Laenge>
        <Dauer>4.5</Dauer>
        <Charakter>leichtes Gelände</Charakter>
        <Lon>11.631288</Lon>
        <Lat>49.313454</Lat>
        <Datum>0000-00-00</Datum>
        <Streckenwanderung>0</Streckenwanderung>
    </walks>
    <walks>
        <Tag>FUW3_48</Tag>
        <Name>Parsberger Impressionen</Name>
        <Laenge>13.0</Laenge>
        <Dauer>3.5</Dauer>
        <Charakter>leichtes Gelände</Charakter>
        <Lon>11.726734</Lon>
        <Lat>49.163094</Lat>
        <Datum>2008-07-20</Datum>
        <Streckenwanderung>0</Streckenwanderung>
    </walks>
    <walks>
        <Tag>FUW3_46</Tag>
        <Name>Von Pollanten auf die waldreichen Abhänge des Sulztals</Name>
        <Laenge>21.0</Laenge>
        <Dauer>5.5</Dauer>
        <Charakter>leichtes bis mittelschweres Gelände</Charakter>
        <Lon>11.461871</Lon>
        <Lat>49.142906</Lat>
        <Datum>0000-00-00</Datum>
        <Streckenwanderung>0</Streckenwanderung>
    </walks>
    <walks>
        <Tag>FUW3_45</Tag>
        <Name>Vom Auer Berg zum Waizenhofer Espan</Name>
        <Laenge>19.0</Laenge>
        <Dauer>5.0</Dauer>
        <Charakter>leichtes Gelände</Charakter>
        <Lon>11.286582</Lon>
        <Lat>49.073315</Lat>
        <Datum>0000-00-00</Datum>
        <Streckenwanderung>0</Streckenwanderung>
    </walks>
    <walks>
        <Tag>FUW3_43</Tag>
        <Name>Von Freystadt zur ehemaligen Grafenresidenz Sulzbürg</Name>
        <Laenge>20.0</Laenge>
        <Dauer>5.0</Dauer>
        <Charakter>leichtes Gelände</Charakter>
        <Lon>11.347713</Lon>
        <Lat>49.190563</Lat>
        <Datum>0000-00-00</Datum>
        <Streckenwanderung>0</Streckenwanderung>
    </walks>
    <walks>
        <Tag>FUW3_44</Tag>
        <Name>Zu den Naturreservaten am Kauerlacher Weiher und auf dem Lämmerberg</Name>
        <Laenge>18.0</Laenge>
        <Dauer>4.5</Dauer>
        <Charakter>leichtes Gelände für heiße Tage weniger geeignet</Charakter>
        <Lon>11.295230</Lon>
        <Lat>49.147457</Lat>
        <Datum>2008-01-13</Datum>
        <Streckenwanderung>0</Streckenwanderung>
    </walks>
    <walks>
        <Tag>FUW3_42</Tag>
        <Name>Zu stillen Oberpfälzer Juratälern hinter Neumarkt</Name>
        <Laenge>22.0</Laenge>
        <Dauer>5.5</Dauer>
        <Charakter>leichtes Gelände</Charakter>
        <Lon>11.469581</Lon>
        <Lat>49.271885</Lat>
        <Datum>0000-00-00</Datum>
        <Streckenwanderung>0</Streckenwanderung>
    </walks>
    <walks>
        <Tag>FUW3_36</Tag>
        <Name>Vom Schwarzachtal zum Hembachgrund</Name>
        <Laenge>21.0</Laenge>
        <Dauer>5.0</Dauer>
        <Charakter>leichtes Gelände</Charakter>
        <Lon>11.145068</Lon>
        <Lat>49.353424</Lat>
        <Datum>0000-00-00</Datum>
        <Streckenwanderung>0</Streckenwanderung>
    </walks>
    <walks>
        <Tag>FUW3_37</Tag>
        <Name>Großer Rundgang durch den Sebalder Reichswald</Name>
        <Laenge>20.0</Laenge>
        <Dauer>5.0</Dauer>
        <Charakter>leichtes Gelände</Charakter>
        <Lon>11.200202</Lon>
        <Lat>49.480221</Lat>
        <Datum>0000-00-00</Datum>
        <Streckenwanderung>0</Streckenwanderung>
    </walks>
    <walks>
        <Tag>FUW3_38</Tag>
        <Name>Über den Moritzberg und durch den Reichswald</Name>
        <Laenge>21.0</Laenge>
        <Dauer>5.5</Dauer>
        <Charakter>leichtes Gelände</Charakter>
        <Lon>11.287586</Lon>
        <Lat>49.460892</Lat>
        <Datum>0000-00-00</Datum>
        <Streckenwanderung>0</Streckenwanderung>
    </walks>
    <walks>
        <Tag>FUW3_39</Tag>
        <Name>Von Altdorf an die Grenze zur Oberpfalz</Name>
        <Laenge>18.0</Laenge>
        <Dauer>4.5</Dauer>
        <Charakter>leichtes Gelände</Charakter>
        <Lon>11.353560</Lon>
        <Lat>49.389969</Lat>
        <Datum>2007-11-01</Datum>
        <Streckenwanderung>0</Streckenwanderung>
    </walks>
    <walks>
        <Tag>FUW3_40</Tag>
        <Name>Zu den Ruinen Haimburg und Wolfstein am Rand der Frankenalb</Name>
        <Laenge>24.0</Laenge>
        <Dauer>6.0</Dauer>
        <Charakter>leichtes Gelände für sehr heiße Tage nicht geeignet</Charakter>
        <Lon>11.439074</Lon>
        <Lat>49.332745</Lat>
        <Datum>0000-00-00</Datum>
        <Streckenwanderung>0</Streckenwanderung>
    </walks>
    <walks>
        <Tag>FUW3_41</Tag>
        <Name>Über den Dillberg und die &quot;Heinzburg&quot; nach Pölling</Name>
        <Laenge>16.0</Laenge>
        <Dauer>4.0</Dauer>
        <Charakter>leichtes Gelände, möglichst nicht bei großer Hitze</Charakter>
        <Lon>11.358503</Lon>
        <Lat>49.307407</Lat>
        <Datum>2008-04-12</Datum>
        <Streckenwanderung>0</Streckenwanderung>
    </walks>
    <walks>
        <Tag>FUW3_35</Tag>
        <Name>Durch die Waldungen links und rechts der Schwabach</Name>
        <Laenge>29.0</Laenge>
        <Dauer>7.5</Dauer>
        <Charakter>leichtes Gelände</Charakter>
        <Lon>11.014628</Lon>
        <Lat>49.328411</Lat>
        <Datum>0000-00-00</Datum>
        <Streckenwanderung>0</Streckenwanderung>
    </walks>
    <walks>
        <Tag>FUW3_34</Tag>
        <Name>Zum Heidenberg, dem &quot;Hausberg&quot; der Schwabacher</Name>
        <Laenge>21.0</Laenge>
        <Dauer>5.0</Dauer>
        <Charakter>leichtes Gelände</Charakter>
        <Lon>11.035525</Lon>
        <Lat>49.326141</Lat>
        <Datum>0000-00-00</Datum>
        <Streckenwanderung>0</Streckenwanderung>
    </walks>
    <walks>
        <Tag>FUW3_33</Tag>
        <Name>Durch die Landschaft um die Aurach im Südwesten Schwabachs</Name>
        <Laenge>25.0</Laenge>
        <Dauer>6.0</Dauer>
        <Charakter>leichtes Gelände</Charakter>
        <Lon>10.974681</Lon>
        <Lat>49.271282</Lat>
        <Datum>0000-00-00</Datum>
        <Streckenwanderung>0</Streckenwanderung>
    </walks>
    <walks>
        <Tag>FUW3_32</Tag>
        <Name>Auf stillen Wegen durchs &quot;Mungenauer Land&quot;</Name>
        <Laenge>24.0</Laenge>
        <Dauer>6.0</Dauer>
        <Charakter>leichtes Gelände für sehr heiße Tage nicht geeignet</Charakter>
        <Lon>10.961030</Lon>
        <Lat>49.242386</Lat>
        <Datum>0000-00-00</Datum>
        <Streckenwanderung>0</Streckenwanderung>
    </walks>
    <walks>
        <Tag>FUW3_30</Tag>
        <Name>Aussichtsreiche Wege im Fränkischen Seenland</Name>
        <Laenge>20.0</Laenge>
        <Dauer>5.5</Dauer>
        <Charakter>überwiegend leichtes Gelände, wegen der freien Hochflächen bei starker Hitze nicht zu empfehlen</Charakter>
        <Lon>10.924815</Lon>
        <Lat>49.175495</Lat>
        <Datum>2007-01-01</Datum>
        <Streckenwanderung>0</Streckenwanderung>
    </walks>
    <walks>
        <Tag>FUW3_31</Tag>
        <Name>Zum &quot;Druidenstein&quot; und zur &quot;Massendorfer Schlucht&quot;</Name>
        <Laenge>21.0</Laenge>
        <Dauer>5.5</Dauer>
        <Charakter>mittelschweres Gelände</Charakter>
        <Lon>11.011796</Lon>
        <Lat>49.188046</Lat>
        <Datum>0000-00-00</Datum>
        <Streckenwanderung>0</Streckenwanderung>
    </walks>
    <walks>
        <Tag>FUW3_29</Tag>
        <Name>Von Wassermungenau nach Mitteleschenbach und zur Burg Wernfels</Name>
        <Laenge>24.0</Laenge>
        <Dauer>6.0</Dauer>
        <Charakter>leichtes Gelände</Charakter>
        <Lon>10.885691</Lon>
        <Lat>49.217552</Lat>
        <Datum>0000-00-00</Datum>
        <Streckenwanderung>0</Streckenwanderung>
    </walks>
    <walks>
        <Tag>FUW3_27</Tag>
        <Name>Durch den Mönchswald ins Mittelalter</Name>
        <Laenge>28.0</Laenge>
        <Dauer>7.0</Dauer>
        <Charakter>leichtes Gelände</Charakter>
        <Lon>10.722995</Lon>
        <Lat>49.152573</Lat>
        <Datum>0000-00-00</Datum>
        <Streckenwanderung>0</Streckenwanderung>
    </walks>
    <walks>
        <Tag>FUW3_28</Tag>
        <Name>Vom Bahnhof Triesdorf ins Altmühltal</Name>
        <Laenge>28.0</Laenge>
        <Dauer>7.0</Dauer>
        <Charakter>leichtes Gelände für heiße Tage weniger geeignet</Charakter>
        <Lon>10.652386</Lon>
        <Lat>49.203213</Lat>
        <Datum>0000-00-00</Datum>
        <Streckenwanderung>0</Streckenwanderung>
    </walks>
    <walks>
        <Tag>FUW3_24</Tag>
        <Name>Von Treuchtlingen zum Albrand und ins Altmühltal</Name>
        <Laenge>21.0</Laenge>
        <Dauer>5.5</Dauer>
        <Charakter>leichtes Gelände</Charakter>
        <Lon>10.911870</Lon>
        <Lat>48.955437</Lat>
        <Datum>0000-00-00</Datum>
        <Streckenwanderung>0</Streckenwanderung>
    </walks>
    <walks>
        <Tag>FUW3_25</Tag>
        <Name>Vom Brombachsee zum Limes</Name>
        <Laenge>24.0</Laenge>
        <Dauer>6.0</Dauer>
        <Charakter>leichtes Gelände</Charakter>
        <Lon>10.987045</Lon>
        <Lat>49.106239</Lat>
        <Datum>0000-00-00</Datum>
        <Streckenwanderung>0</Streckenwanderung>
    </walks>
    <walks>
        <Tag>FUW3_26</Tag>
        <Name>Vom Limes durch die &quot;Heide&quot; nach Gräfensteinberg</Name>
        <Laenge>19.0</Laenge>
        <Dauer>5.0</Dauer>
        <Charakter>leichtes Gelände, für heiße Tage weniger geeignet</Charakter>
        <Lon>10.753399</Lon>
        <Lat>49.115940</Lat>
        <Datum>2007-01-01</Datum>
        <Streckenwanderung>0</Streckenwanderung>
    </walks>
    <walks>
        <Tag>FUW3_23</Tag>
        <Name>Von Treuchtlingen in Heumödern- und Rohrachtal</Name>
        <Laenge>16.0</Laenge>
        <Dauer>4.0</Dauer>
        <Charakter>leichtes Gelände</Charakter>
        <Lon>10.911870</Lon>
        <Lat>48.955437</Lat>
        <Datum>0000-00-00</Datum>
        <Streckenwanderung>0</Streckenwanderung>
    </walks>
    <walks>
        <Tag>FUW3_22</Tag>
        <Name>Zu Aussichtswarten im westlichen Hahnenkamm</Name>
        <Laenge>18.0</Laenge>
        <Dauer>4.5</Dauer>
        <Charakter>leichtes Gelände</Charakter>
        <Lon>10.691203</Lon>
        <Lat>49.022743</Lat>
        <Datum>2007-10-06</Datum>
        <Streckenwanderung>0</Streckenwanderung>
    </walks>
    <walks>
        <Tag>FUW3_21</Tag>
        <Name>Vom Hahnenkammsee zum Ries</Name>
        <Laenge>23.0</Laenge>
        <Dauer>6.0</Dauer>
        <Charakter>leichtes bis mittelschweres Gelände</Charakter>
        <Lon>10.732734</Lon>
        <Lat>48.977928</Lat>
        <Datum>0000-00-00</Datum>
        <Streckenwanderung>0</Streckenwanderung>
    </walks>
    <walks>
        <Tag>FUW3_20</Tag>
        <Name>Von Wassertrüdingen in den Oettinger Forst und zur &quot;Wunibaldquelle&quot;</Name>
        <Laenge>26.0</Laenge>
        <Dauer>6.5</Dauer>
        <Charakter>leichtes Gelände</Charakter>
        <Lon>10.597264</Lon>
        <Lat>49.041328</Lat>
        <Datum>0000-00-00</Datum>
        <Streckenwanderung>0</Streckenwanderung>
    </walks>
    <walks>
        <Tag>FUW3_18</Tag>
        <Name>Dinkelsbühler Waldwanderung</Name>
        <Laenge>15.0</Laenge>
        <Dauer>4.0</Dauer>
        <Charakter>leichtes Gelände</Charakter>
        <Lon>10.320172</Lon>
        <Lat>49.068851</Lat>
        <Datum>2008-06-21</Datum>
        <Streckenwanderung>0</Streckenwanderung>
    </walks>
    <walks>
        <Tag>FUW3_19</Tag>
        <Name>In die &quot;Heide&quot; zwischen Bechhofen und Hesselberg</Name>
        <Laenge>22.0</Laenge>
        <Dauer>5.5</Dauer>
        <Charakter>leichtes Gelände</Charakter>
        <Lon>10.553197</Lon>
        <Lat>49.159958</Lat>
        <Datum>0000-00-00</Datum>
        <Streckenwanderung>0</Streckenwanderung>
    </walks>
    <walks>
        <Tag>FUW3_17</Tag>
        <Name>Zu Aussichtspunkten in der Umgebung der alten Hohenlohe-Residenz Schillingsfürst</Name>
        <Laenge>21.0</Laenge>
        <Dauer>5.5</Dauer>
        <Charakter>überwiegend leichtes Gelände</Charakter>
        <Lon>10.287464</Lon>
        <Lat>49.253300</Lat>
        <Datum>0000-00-00</Datum>
        <Streckenwanderung>0</Streckenwanderung>
    </walks>
    <walks>
        <Tag>FUW3_15</Tag>
        <Name>Zum Quellgebiet der Altmühl im Naturpark Frankenhöhe</Name>
        <Laenge>17.0</Laenge>
        <Dauer>4.5</Dauer>
        <Charakter>überwiegend leichtes Gelände</Charakter>
        <Lon>10.275241</Lon>
        <Lat>49.454601</Lat>
        <Datum>2007-01-01</Datum>
        <Streckenwanderung>0</Streckenwanderung>
    </walks>
    <walks>
        <Tag>FUW3_16</Tag>
        <Name>Vom mittelalterlichen Rothenburg zum Luginsland und durchs idyllische Steinbachtal</Name>
        <Laenge>20.0</Laenge>
        <Dauer>5.0</Dauer>
        <Charakter>leichtes Gelände</Charakter>
        <Lon>10.178529</Lon>
        <Lat>49.380505</Lat>
        <Datum>0000-00-00</Datum>
        <Streckenwanderung>0</Streckenwanderung>
    </walks>
    <walks>
        <Tag>FUW3_13</Tag>
        <Name>Auf den Höhen beiderseits des Onolzbaches</Name>
        <Laenge>20.0</Laenge>
        <Dauer>5.0</Dauer>
        <Charakter>leichtes Gelände</Charakter>
        <Lon>10.571476</Lon>
        <Lat>49.300735</Lat>
        <Datum>0000-00-00</Datum>
        <Streckenwanderung>0</Streckenwanderung>
    </walks>
    <walks>
        <Tag>FUW3_14</Tag>
        <Name>Vom Oberlauf der Rezat zu den Schlössern von Virnsberg und Obernzenn</Name>
        <Laenge>21.0</Laenge>
        <Dauer>5.5</Dauer>
        <Charakter>überwiegend leichtes Gelände</Charakter>
        <Lon>10.423316</Lon>
        <Lat>49.415607</Lat>
        <Datum>0000-00-00</Datum>
        <Streckenwanderung>0</Streckenwanderung>
    </walks>
    <walks>
        <Tag>FUW3_10</Tag>
        <Name>Von der Münsterstadt Heilsbronn zum Löhe-Dorf Neuendettelsau</Name>
        <Laenge>22.0</Laenge>
        <Dauer>5.5</Dauer>
        <Charakter>leichtes Gelände</Charakter>
        <Lon>10.786611</Lon>
        <Lat>49.335064</Lat>
        <Datum>0000-00-00</Datum>
        <Streckenwanderung>0</Streckenwanderung>
    </walks>
    <walks>
        <Tag>FUW3_11</Tag>
        <Name>Von Heilsbronn in den Bibertgrund</Name>
        <Laenge>23.0</Laenge>
        <Dauer>6.0</Dauer>
        <Charakter>leichtes Gelände, möglichst nicht bei großer Hitze</Charakter>
        <Lon>10.786611</Lon>
        <Lat>49.335064</Lat>
        <Datum>0000-00-00</Datum>
        <Streckenwanderung>0</Streckenwanderung>
    </walks>
    <walks>
        <Tag>FUW3_12</Tag>
        <Name>Von Ansbach zum Sonnensee und zurück</Name>
        <Laenge>22.0</Laenge>
        <Dauer>5.5</Dauer>
        <Charakter>leichtes Gelände</Charakter>
        <Lon>10.581959</Lon>
        <Lat>49.316528</Lat>
        <Datum>0000-00-00</Datum>
        <Streckenwanderung>0</Streckenwanderung>
    </walks>
    <walks>
        <Tag>FUW3_09</Tag>
        <Name>Streifzüge zwischen Zenn und Bibert</Name>
        <Laenge>26.0</Laenge>
        <Dauer>6.5</Dauer>
        <Charakter>leichtes Gelände</Charakter>
        <Lon>10.685489</Lon>
        <Lat>49.468056</Lat>
        <Datum>0000-00-00</Datum>
        <Streckenwanderung>0</Streckenwanderung>
    </walks>
    <walks>
        <Tag>FUW3_06</Tag>
        <Name>Durch die Weiherlandschaft im Westen von Weisendorf</Name>
        <Laenge>25.0</Laenge>
        <Dauer>6.5</Dauer>
        <Charakter>leichtes Gelände, bei starker Hitze weniger geeignet</Charakter>
        <Lon>10.824815</Lon>
        <Lat>49.622265</Lat>
        <Datum>0000-00-00</Datum>
        <Streckenwanderung>0</Streckenwanderung>
    </walks>
    <walks>
        <Tag>FUW3_07</Tag>
        <Name>Von Emskirchen in die Heimat des Aischgründer Karpfens</Name>
        <Laenge>27.0</Laenge>
        <Dauer>7.0</Dauer>
        <Charakter>leichtes Gelände</Charakter>
        <Lon>10.717114</Lon>
        <Lat>49.551205</Lat>
        <Datum>0000-00-00</Datum>
        <Streckenwanderung>0</Streckenwanderung>
    </walks>
    <walks>
        <Tag>FUW3_08</Tag>
        <Name>Vom Zenntal über den Dillenberg ins Farrnbachtal</Name>
        <Laenge>22.0</Laenge>
        <Dauer>5.5</Dauer>
        <Charakter>leichtes Gelände, nicht bei starker Hitze</Charakter>
        <Lon>10.712955</Lon>
        <Lat>49.481812</Lat>
        <Datum>0000-00-00</Datum>
        <Streckenwanderung>0</Streckenwanderung>
    </walks>
    <walks>
        <Tag>FUW3_05</Tag>
        <Name>Zum Sibyllengrab auf dem Lauberberg</Name>
        <Laenge>22.0</Laenge>
        <Dauer>5.5</Dauer>
        <Charakter>leichtes Gelände</Charakter>
        <Lon>10.825846</Lon>
        <Lat>49.650276</Lat>
        <Datum>2009-02-05</Datum>
        <Streckenwanderung>0</Streckenwanderung>
    </walks>
    <walks>
        <Tag>FUW3_03</Tag>
        <Name>Durch Wald und Flur zwischen Herzogenaurach und Weisendorf</Name>
        <Laenge>21.0</Laenge>
        <Dauer>5.5</Dauer>
        <Charakter>leichtes Gelände</Charakter>
        <Lon>10.881092</Lon>
        <Lat>49.568916</Lat>
        <Datum>0000-00-00</Datum>
        <Streckenwanderung>0</Streckenwanderung>
    </walks>
    <walks>
        <Tag>FUW3_04</Tag>
        <Name>Im Vogelschutzgebiet zwischen Erlangen und Höchstadt</Name>
        <Laenge>20.0</Laenge>
        <Dauer>5.0</Dauer>
        <Charakter>leichtes Gelände, für heiße Sonnentage nicht geeignet (wenig Wald)</Charakter>
        <Lon>10.876034</Lon>
        <Lat>49.631550</Lat>
        <Datum>0000-00-00</Datum>
        <Streckenwanderung>0</Streckenwanderung>
    </walks>
    <walks>
        <Tag>FUW3_02</Tag>
        <Name>Durch die Wälder nördlich von Herzogenaurach</Name>
        <Laenge>20.0</Laenge>
        <Dauer>5.0</Dauer>
        <Charakter>leichtes Gelände</Charakter>
        <Lon>10.881092</Lon>
        <Lat>49.568916</Lat>
        <Datum>0000-00-00</Datum>
        <Streckenwanderung>0</Streckenwanderung>
    </walks>
    <walks>
        <Tag>FUW3_01</Tag>
        <Name>Von Cadolzburg zum Bibertgrund</Name>
        <Laenge>24.0</Laenge>
        <Dauer>6.0</Dauer>
        <Charakter>leichtes Gelände, für sehr heiße Tage weniger geeignet</Charakter>
        <Lon>10.851325</Lon>
        <Lat>49.459843</Lat>
        <Datum>0000-00-00</Datum>
        <Streckenwanderung>0</Streckenwanderung>
    </walks>
    <walks>
        <Tag>FUW2_06</Tag>
        <Name>Von Langenzenn zum Farrnbach- und Fembachgrund</Name>
        <Laenge>18.0</Laenge>
        <Dauer>4.5</Dauer>
        <Charakter>leichtes Gelände</Charakter>
        <Lon>10.801858</Lon>
        <Lat>49.496998</Lat>
        <Datum>2008-11-05</Datum>
        <Streckenwanderung>0</Streckenwanderung>
    </walks>
    <walks>
        <Tag>FUW2_07</Tag>
        <Name>Vom Ulsenbachgrund zum Eschen- und Erlenbachtal</Name>
        <Laenge>18.0</Laenge>
        <Dauer>4.5</Dauer>
        <Charakter>leichtes Gelände</Charakter>
        <Lon>10.725438</Lon>
        <Lat>49.483410</Lat>
        <Datum>2008-08-24</Datum>
        <Streckenwanderung>0</Streckenwanderung>
    </walks>
    <walks>
        <Tag>FUW2_08</Tag>
        <Name>Durch den Schußbachwald und zur Burg Hoheneck auf der Frankenhöhe</Name>
        <Laenge>32.0</Laenge>
        <Dauer>8.0</Dauer>
        <Charakter>leichtes Gelände</Charakter>
        <Lon>10.658596</Lon>
        <Lat>49.492558</Lat>
        <Datum>0000-00-00</Datum>
        <Streckenwanderung>0</Streckenwanderung>
    </walks>
    <walks>
        <Tag>FUW2_09</Tag>
        <Name>In den Seebachgrund und zur Hannberger Wehrkirche</Name>
        <Laenge>13.0</Laenge>
        <Dauer>3.5</Dauer>
        <Charakter>leichtes Gelände, bei großer Hitze nicht zu empfehlen</Charakter>
        <Lon>10.938405</Lon>
        <Lat>49.626270</Lat>
        <Datum>0000-00-00</Datum>
        <Streckenwanderung>0</Streckenwanderung>
    </walks>
    <walks>
        <Tag>FUW2_10</Tag>
        <Name>In die Weiherlandschaft um Dechsendorf</Name>
        <Laenge>16.0</Laenge>
        <Dauer>4.0</Dauer>
        <Charakter>leichtes Gelände</Charakter>
        <Lon>10.964517</Lon>
        <Lat>49.618259</Lat>
        <Datum>0000-00-00</Datum>
        <Streckenwanderung>0</Streckenwanderung>
    </walks>
    <walks>
        <Tag>FUW2_11</Tag>
        <Name>Zu den Linder Gruben und auf den Eichelberg</Name>
        <Laenge>12.0</Laenge>
        <Dauer>3.0</Dauer>
        <Charakter>leichtes Gelände</Charakter>
        <Lon>10.898632</Lon>
        <Lat>49.400696</Lat>
        <Datum>2009-02-24</Datum>
        <Streckenwanderung>0</Streckenwanderung>
    </walks>
    <walks>
        <Tag>FUW2_12</Tag>
        <Name>Von Großweißmannsdorf an stillen Bachtälern entlang nach Roßtal</Name>
        <Laenge>22.0</Laenge>
        <Dauer>5.5</Dauer>
        <Charakter>leichtes Gelände</Charakter>
        <Lon>10.936642</Lon>
        <Lat>49.381077</Lat>
        <Datum>0000-00-00</Datum>
        <Streckenwanderung>0</Streckenwanderung>
    </walks>
    <walks>
        <Tag>FUW2_13</Tag>
        <Name>Vom Schwallbach- zum Schwabachtal</Name>
        <Laenge>12.0</Laenge>
        <Dauer>3.0</Dauer>
        <Charakter>leichtes Gelände</Charakter>
        <Lon>10.884402</Lon>
        <Lat>49.365486</Lat>
        <Datum>2008-01-01</Datum>
        <Streckenwanderung>0</Streckenwanderung>
    </walks>
    <walks>
        <Tag>FUW2_14</Tag>
        <Name>Zur fränkischen Münsterstadt Heilsbronn</Name>
        <Laenge>10.0</Laenge>
        <Dauer>2.5</Dauer>
        <Charakter>leichtes Gelände</Charakter>
        <Lon>10.710522</Lon>
        <Lat>49.310497</Lat>
        <Datum>0000-00-00</Datum>
        <Streckenwanderung>0</Streckenwanderung>
    </walks>
    <walks>
        <Tag>FUW2_15</Tag>
        <Name>Von der &quot;Festungsstadt&quot; Lichtenau zur &quot;Minnesängerstadt&quot; Wolframs-Eschenbach</Name>
        <Laenge>22.0</Laenge>
        <Dauer>5.5</Dauer>
        <Charakter>leichtes Gelände</Charakter>
        <Lon>10.685243</Lon>
        <Lat>49.276829</Lat>
        <Datum>0000-00-00</Datum>
        <Streckenwanderung>0</Streckenwanderung>
    </walks>
    <walks>
        <Tag>FUW2_16</Tag>
        <Name>Ins südliche Umland von Windsbach</Name>
        <Laenge>11.0</Laenge>
        <Dauer>3.0</Dauer>
        <Charakter>leichtes Gelände</Charakter>
        <Lon>10.825733</Lon>
        <Lat>49.249790</Lat>
        <Datum>0000-00-00</Datum>
        <Streckenwanderung>0</Streckenwanderung>
    </walks>
    <walks>
        <Tag>FUW2_17</Tag>
        <Name>Ins nördliche Umland von Spalt</Name>
        <Laenge>18.0</Laenge>
        <Dauer>4.5</Dauer>
        <Charakter>überwiegend leichtes Gelände</Charakter>
        <Lon>10.921707</Lon>
        <Lat>49.179871</Lat>
        <Datum>2009-02-14</Datum>
        <Streckenwanderung>0</Streckenwanderung>
    </walks>
    <walks>
        <Tag>FUW2_18</Tag>
        <Name>Von Spalt über das &quot;Schnittlinger Loch&quot; und &quot;Zigeunerloch&quot; zur Burg Wernfels</Name>
        <Laenge>18.0</Laenge>
        <Dauer>5.0</Dauer>
        <Charakter>mittelschweres Gelände</Charakter>
